,Restaurant Name,City,Locality,Longitude,Latitude,Cuisines,Average Cost for two,Has Table booking,Has Online delivery,Is delivering now,Price range,Aggregate rating,Rating color,Rating text,Votes
0,Jahanpanah,Agra,Agra Cantt,78.01154444,27.16166111,"North Indian, Mughlai",850.0,No,No,No,3,3.9,Yellow,Good,140
2,Time2Eat - Mama Chicken,Agra,Agra Cantt,78.01160797,27.16083249,North Indian,500.0,No,No,No,2,3.6,Yellow,Good,94
3,Chokho Jeeman Marwari Jain Bhojanalya,Agra,Civil Lines,77.99809167,27.19592778,Rajasthani,400.0,No,No,No,2,4.0,Green,Very Good,87
4,Pinch Of Spice,Agra,Civil Lines,78.00755278,27.201725,"North Indian, Chinese, Mughlai",1000.0,No,No,No,3,4.2,Green,Very Good,177
6,Peshawri - ITC Mughal,Agra,"ITC Mughal, Tajganj",78.044095,27.160934,"North Indian, Mughlai",2500.0,No,No,No,4,4.3,Green,Very Good,133
7,Taj Bano - ITC Mughal,Agra,"ITC Mughal, Tajganj",78.044095,27.160934,Mughlai,2500.0,No,No,No,4,4.0,Green,Very Good,41
9,Dawat-e-Nawab - Radisson Blu,Agra,"Radisson Blu, Tajganj",78.057044,27.163303,"North Indian, Mughlai",3600.0,No,No,No,4,3.8,Yellow,Good,46
11,Dasaprakash Restaurant,Agra,Rakabganj,78.01505278,27.16510833,"South Indian, Desserts",550.0,No,No,No,2,4.1,Green,Very Good,121
12,The Charcoal Chimney,Agra,Tajganj,78.04299,27.159795,"North Indian, Chinese, Continental, Mughlai",1100.0,No,No,No,3,3.4,Orange,Average,70
16,Pind Balluchi,Agra,Tajganj,78.04725,27.15777222,"North Indian, Mughlai",900.0,No,No,No,3,3.7,Yellow,Good,175
17,Pizza Hut,Agra,Tajganj,78.03471389,27.16169444,"Italian, Pizza",700.0,No,No,No,2,4.4,Green,Very Good,134
19,Thaaliwala,Agra,Tajganj,78.045359,27.158822,"North Indian, Fast Food",700.0,No,No,No,2,4.1,Green,Very Good,168
20,650 - The Global Kitchen,Ahmedabad,Ambavadi,72.5375741,23.01045111,"Chinese, Italian, North Indian, Mexican, Mediterranean, Thai",900.0,No,No,No,3,4.2,Green,Very Good,1582
21,Patang - The Revolving Restaurant,Ahmedabad,Ashram Road,72.572009,23.0261651,"Continental, Chinese, North Indian",1800.0,No,No,No,4,3.7,Yellow,Good,1315
22,Huber & Holly,Ahmedabad,Bodakdev,72.5123947,23.0383109,"Ice Cream, Desserts, Continental",300.0,No,Yes,No,1,4.5,Dark Green,Excellent,217
23,@Mango,Ahmedabad,Bodakdev,72.5017644,23.0401633,"North Indian, Continental, Mexican, Italian",800.0,No,No,No,3,4.1,Green,Very Good,769
24,Fozzie's Pizzaiolo,Ahmedabad,Bodakdev,72.5098065,23.0330688,"Pizza, Italian, Beverages, Desserts",900.0,No,Yes,No,3,4.3,Green,Very Good,731
25,La Pino'z Pizza,Ahmedabad,Bodakdev,72.5124872,23.0382314,"Pizza, Italian",500.0,No,Yes,No,2,4.4,Green,Very Good,113
26,Mocha,Ahmedabad,Bodakdev,72.511307,23.0318508,"Cafe, Continental, Desserts",1000.0,No,Yes,No,3,4.4,Green,Very Good,944
27,Blue -  Rooftop Cafe Restaurant Bistro,Ahmedabad,C G Road,72.5570374,23.0290619,"North Indian, Cafe, Italian, Mexican, Continental",1000.0,No,Yes,No,3,3.8,Yellow,Good,63
28,MoMo CafÌ© - Courtyard By Marriott,Ahmedabad,"Courtyard By Marriott, Satellite",72.5115815,23.027929,"North Indian, South Indian, Asian, Continental",1400.0,No,No,No,3,3.6,Yellow,Good,375
29,Cryo Lab,Ahmedabad,Ellis Bridge,72.55998429,23.02874796,"Desserts, Ice Cream",350.0,No,No,No,2,4.6,Dark Green,Excellent,166
30,Swati Snacks,Ahmedabad,Ellis Bridge,72.55903311,23.02443364,"Fast Food, Street Food, South Indian",450.0,No,No,No,2,4.4,Green,Very Good,697
31,Brick Kitchen,Ahmedabad,Ghatlodia,72.5316389,23.0643038,"North Indian, Chinese, Continental",900.0,No,No,No,3,4.3,Green,Very Good,325
32,Kabir Restaurant,Ahmedabad,Gurukul,72.5239649,23.04850469,"North Indian, Chinese, Continental, Desserts, Fast Food, Sandwich",600.0,No,Yes,No,2,3.8,Yellow,Good,432
33,Puffizza,Ahmedabad,Gurukul,72.53774978,23.04619268,"Italian, Fast Food",700.0,No,Yes,No,2,4.3,Green,Very Good,744
34,Cafe Alfresco,Ahmedabad,Navrangpura,72.5498285,23.0437235,"Cafe, Beverages, Desserts, Pizza",700.0,No,Yes,No,2,4.0,Green,Very Good,404
35,The Cafe Baraco,Ahmedabad,Navrangpura,72.5504755,23.0443367,"Cafe, Italian",600.0,No,Yes,No,2,4.4,Green,Very Good,317
36,Nini's Kitchen,Ahmedabad,Prahlad Nagar,72.5072645,23.0117723,"North Indian, Continental, Beverages, Italian, Burger, Healthy Food, Mediterranean",950.0,No,Yes,No,3,4.5,Dark Green,Excellent,1138
37,Yanki Sizzlers,Ahmedabad,Thaltej,72.5181257,23.0534466,"Continental, Italian, Chinese",1200.0,No,No,No,3,4.1,Green,Very Good,1041
38,The Garden Cafe - The Fern,Ahmedabad,"The Fern, Sola",72.5222172,23.0640914,"North Indian, Italian, Asian, South Indian",1200.0,No,No,No,3,4.1,Green,Very Good,192
39,Mazzo,Ahmedabad,Vastrapur,72.5281083,23.0418026,"Cafe, American, Continental, Armenian, Fast Food",550.0,No,Yes,No,2,3.9,Yellow,Good,166
40,Turquoise Villa,Ahmedabad,Vastrapur,72.5434513,23.0285142,Continental,1200.0,No,No,No,3,4.0,Green,Very Good,535
41,Aryan Family's Delight,Allahabad,Civil Lines,81.834502,25.454648,"North Indian, South Indian, Fast Food",500.0,No,No,No,3,3.4,Orange,Average,57
42,Bean Here,Allahabad,Civil Lines,81.83316667,25.45343611,"Cafe, Fast Food",350.0,No,No,No,2,3.3,Orange,Average,76
43,Bikanerwala,Allahabad,Civil Lines,81.832616,25.451517,"North Indian, Street Food, Fast Food",500.0,No,No,No,3,3.2,Orange,Average,51
45,Friends Forever,Allahabad,Civil Lines,81.835585,25.457687,"North Indian, Chinese",600.0,No,No,No,3,3.4,Orange,Average,83
47,KFC,Allahabad,Civil Lines,81.839744,25.449659,"American, Fast Food",500.0,No,No,No,3,3.4,Orange,Average,58
48,McDonald's,Allahabad,Civil Lines,81.834279,25.450329,Fast Food,400.0,No,No,No,2,3.3,Orange,Average,53
52,Tandoor Restaurant,Allahabad,Civil Lines,81.860187,25.443994,"North Indian, Chinese",500.0,No,No,No,3,3.2,Orange,Average,151
54,The Tamarind Tree,Allahabad,Civil Lines,81.834841,25.459775,"South Indian, Chinese",500.0,No,No,No,3,3.4,Orange,Average,106
55,Cafe El Chico,Allahabad,Civil Lines,81.83616667,25.44987222,"Continental, Italian",1000.0,No,No,No,4,3.6,Yellow,Good,59
56,Eat On,Allahabad,Civil Lines,81.834236,25.450377,North Indian,200.0,No,No,No,1,3.7,Yellow,Good,105
57,Hot Stuff,Allahabad,Civil Lines,81.841889,25.45235,"North Indian, Fast Food",500.0,No,No,No,3,3.5,Yellow,Good,105
58,Paradise,Allahabad,Civil Lines,81.83168056,25.45031667,"Desserts, Fast Food",500.0,No,No,No,3,3.6,Yellow,Good,57
59,Sagar Ratna,Allahabad,Tagore Town,81.859682,25.457116,"South Indian, North Indian, Chinese, Continental",400.0,No,No,No,2,3.5,Yellow,Good,134
60,Moti Mahal Delux,Allahabad,"Vinayak City Centre Mall, Civil Lines",81.834492,25.454697,"Mughlai, North Indian, Chinese",800.0,No,No,No,3,3.3,Orange,Average,58
61,Makhan Fish and Chicken Corner,Amritsar,Basant Nagar,74.884359,31.64362,"North Indian, Chinese",700.0,No,No,No,2,3.4,Orange,Average,345
62,Charming Chicken,Amritsar,Basant Nagar,74.884384,31.644532,North Indian,300.0,No,No,No,1,3.9,Yellow,Good,151
64,Crystal Restaurant,Amritsar,INA Colony,74.875878,31.635658,"North Indian, Mughlai",800.0,No,No,No,3,3.4,Orange,Average,122
65,Brijwasi Chat Bhandar,Amritsar,INA Colony,74.87575556,31.63488333,Street Food,150.0,No,No,No,1,3.6,Yellow,Good,56
66,Bubby Fish & Chicken Corner,Amritsar,INA Colony,74.875828,31.635671,North Indian,300.0,No,No,No,1,3.5,Yellow,Good,91
68,The Yellow Chilli,Amritsar,Ranjit Avenue,74.86276111,31.65558889,"North Indian, Mughlai, Chinese",1200.0,No,No,No,3,3.4,Orange,Average,98
69,La Roma Pizzeria,Amritsar,Ranjit Avenue,74.86299167,31.65044167,"Fast Food, Italian",400.0,No,No,No,2,3.5,Yellow,Good,111
70,Sakhis Watz Kukin,Amritsar,Ranjit Avenue,74.8649101,31.6466891,"North Indian, Chinese",700.0,No,No,No,2,3.6,Yellow,Good,51
71,The Kulcha Land,Amritsar,Ranjit Avenue,74.86416667,31.65319167,"North Indian, Street Food",200.0,No,No,No,1,3.9,Yellow,Good,206
72,Shudh Restaurant,Amritsar,Town Hall,74.87981389,31.62404722,"North Indian, South Indian, Chinese, Fast Food",600.0,No,No,No,2,3.4,Orange,Average,44
73,Bade Bhai Ka Brothers' Dhaba,Amritsar,Town Hall,74.87461944,31.62394722,"North Indian, Fast Food",500.0,No,No,No,2,3.7,Yellow,Good,94
74,Bharawan Da Dhaba,Amritsar,Town Hall,74.87833333,31.62615278,"North Indian, Fast Food",500.0,No,No,No,2,3.5,Yellow,Good,461
75,Brothers Dhaba,Amritsar,Town Hall,74.877666,31.625981,North Indian,500.0,No,No,No,2,3.8,Yellow,Good,276
76,Brothers' Amritsari Dhaba,Amritsar,Town Hall,74.87957778,31.62261111,North Indian,400.0,No,No,No,2,3.8,Yellow,Good,71
78,Kesar Da Dhabha,Amritsar,Town Hall,74.873005,31.624386,North Indian,500.0,No,No,No,2,4.1,Green,Very Good,878
79,Beera Chicken Corner,Amritsar,White Avenue,74.883997,31.641991,North Indian,500.0,No,No,No,2,3.8,Yellow,Good,192
80,Surjit Food Plaza,Amritsar,White Avenue,74.877002,31.644818,North Indian,1000.0,No,No,No,3,3.5,Yellow,Good,96
82,Kream N Krunch,Aurangabad,Akashwani,75.34601667,19.87621944,"North Indian, Chinese, Continental, Italian",800.0,No,No,No,3,3.6,Yellow,Good,240
84,Angeethi Restaurant,Aurangabad,CIDCO,75.35394167,19.87473333,"North Indian, Chinese",600.0,No,No,No,2,3.3,Orange,Average,63
85,Domino's Pizza,Aurangabad,CIDCO,75.340775,19.87610556,Pizza,700.0,No,No,No,2,3.1,Orange,Average,19
86,Hotel Laadli,Aurangabad,CIDCO,75.3671268,19.8755223,"North Indian, South Indian",350.0,No,No,No,2,3.4,Orange,Average,46
87,Indiana Veg Restaurant,Aurangabad,CIDCO,75.360232,19.874449,"South Indian, North Indian, Chinese, Fast Food",450.0,No,No,No,2,3.4,Orange,Average,75
88,Madhuban Restaurant - Welcome Hotel Rama International,Aurangabad,CIDCO,75.358888,19.875908,"North Indian, Chinese, Continental, Italian, Mexican",1800.0,No,No,No,4,3.4,Orange,Average,94
89,Mauj Restaurant,Aurangabad,CIDCO,75.36479167,19.87642778,"Italian, Fast Food, North Indian, Chinese",500.0,No,No,No,2,3.3,Orange,Average,47
90,Naivedya,Aurangabad,CIDCO,75.3684187,19.874103,North Indian,500.0,No,No,No,2,3.4,Orange,Average,71
91,d' Curry House,Aurangabad,"Hotel Green Olive, Nirala Bazar",75.316722,19.875337,"Continental, Chinese, Biryani, North Indian",1000.0,No,No,No,3,3.6,Yellow,Good,73
93,Ashoka's Veg Restaurant,Aurangabad,Nirala Bazar,75.32340278,19.87963056,"South Indian, Chinese, North Indian",400.0,No,No,No,2,3.3,Orange,Average,46
94,Kareem's Fine Dining,Aurangabad,Nirala Bazar,75.32350278,19.88025556,"Mughlai, Biryani",700.0,No,No,No,2,3.3,Orange,Average,45
95,That Baat,Aurangabad,Nirala Bazar,75.322405,19.875016,Maharashtrian,450.0,No,No,No,2,3.4,Orange,Average,34
96,Bhoj Restaurant,Aurangabad,Nirala Bazar,75.317475,19.87802778,North Indian,450.0,No,No,No,2,3.7,Yellow,Good,89
98,Kareem's Kabab & Biryani,Aurangabad,"Prozone Mall, Chicalthana",75.37235278,19.87699444,Mughlai,650.0,No,No,No,2,3.4,Orange,Average,39
99,Great Sagar Restaurant,Aurangabad,Shahgunj,75.321461,19.888716,"North Indian, Mughlai",600.0,No,No,No,2,3.3,Orange,Average,74
100,Kailash Restaurant,Aurangabad,Usmanpura,75.31889444,19.86696944,"North Indian, Chinese, South Indian, Fast Food",450.0,No,No,No,2,3.3,Orange,Average,76
102,Sultans of Spice,Bangalore,"BluPetal Hotel, Koramangala",77.61542793,12.93328392,"North Indian, Mughlai",1300.0,Yes,Yes,No,3,4.1,Green,Very Good,2416
103,The Fatty Bao - Asian Gastro Bar,Bangalore,Indiranagar,77.64539558,12.97022064,Asian,2400.0,Yes,Yes,No,4,4.7,Dark Green,Excellent,2369
104,Toit,Bangalore,Indiranagar,77.64070876,12.9791658,"Italian, American, Pizza",2000.0,No,No,No,4,4.8,Dark Green,Excellent,10934
105,Three Dots & A Dash,Bangalore,Indiranagar,77.64048882,12.98041024,"European, Continental",1300.0,Yes,No,No,3,3.9,Yellow,Good,1354
106,Bombay Brasserie,Bangalore,Indiranagar,77.645748,12.970324,Modern Indian,1500.0,No,Yes,No,3,4.2,Green,Very Good,231
107,Glen's Bakehouse,Bangalore,Indiranagar,77.64062494,12.97909556,"Bakery, Desserts, Cafe",800.0,No,No,No,2,4.0,Green,Very Good,3533
108,Onesta,Bangalore,Indiranagar,77.64368467,12.97845292,"Pizza, Cafe, Italian",600.0,No,Yes,No,2,4.3,Green,Very Good,1413
109,Onesta,Bangalore,JP Nagar,77.59679094,12.90622878,"Pizza, Cafe, Italian",600.0,No,No,No,2,4.6,Dark Green,Excellent,781
110,ECHOES Koramangala,Bangalore,Koramangala 5th Block,77.615797,12.934179,"Continental, American, Italian, North Indian, Chinese, Cafe",950.0,No,No,No,2,4.7,Dark Green,Excellent,276
111,Truffles,Bangalore,Koramangala 5th Block,77.61429269,12.93329764,"American, Burger, Cafe",800.0,No,Yes,No,2,4.7,Dark Green,Excellent,9667
112,The Black Pearl,Bangalore,Koramangala 5th Block,77.61615515,12.93436454,"North Indian, European, Mediterranean",1400.0,Yes,No,No,3,4.1,Green,Very Good,5385
113,Eat Street,Bangalore,Koramangala 6th Block,77.625999,12.939496,"North Indian, Chinese, Italian, Street Food, Desserts",400.0,No,Yes,No,1,4.3,Green,Very Good,753
114,Koramangala Social,Bangalore,Koramangala 7th Block,77.61413042,12.93566181,"Continental, American",1500.0,No,No,No,3,4.5,Dark Green,Excellent,1288
115,AB's - Absolute Barbecues,Bangalore,Marathahalli,77.6993861,12.94993396,"European, Mediterranean, North Indian",1400.0,No,No,No,3,4.6,Dark Green,Excellent,6907
116,Flechazo,Bangalore,Marathahalli,77.696664,12.97537691,"Asian, Mediterranean, North Indian",1200.0,Yes,No,No,3,4.4,Green,Very Good,983
117,Onesta,Bangalore,New BEL Road,77.5709967,13.0291977,"Pizza, Cafe, Italian",600.0,No,No,No,2,4.6,Dark Green,Excellent,627
118,Communiti,Bangalore,Residency Road,77.60817859,12.97253153,Continental,1200.0,No,No,No,3,4.2,Green,Very Good,334
119,Big Brewsky,Bangalore,Sarjapur Road,77.68323686,12.91304096,"Finger Food, North Indian, Italian, Continental, Thai, South Indian",1800.0,Yes,Yes,No,3,4.5,Dark Green,Excellent,5705
120,Hoot,Bangalore,Sarjapur Road,77.6784,12.914264,"Continental, Italian, North Indian",1400.0,No,No,No,3,3.9,Yellow,Good,405
121,Farzi Cafe,Bangalore,UB City,77.5960137,12.9721612,Modern Indian,1500.0,No,No,No,3,4.4,Green,Very Good,754
122,Black N White Cafe,Bhopal,Arera Colony,77.419399,23.211529,"Cafe, Chinese, North Indian",200.0,No,No,No,1,3.3,Orange,Average,51
124,Sagar Gaire Fast Food,Bhopal,Arera Colony,77.435361,23.214294,Fast Food,250.0,No,No,No,1,4.9,Dark Green,Excellent,427
125,The Kasbah,Bhopal,Arera Colony,77.41722744,23.18499152,"North Indian, Chinese",700.0,No,No,No,2,3.9,Yellow,Good,126
126,Bake N Shake,Bhopal,Arera Colony,77.434976,23.214459,Fast Food,500.0,No,No,No,2,4.2,Green,Very Good,223
127,10 Downing Street,Bhopal,"DB City, Maharana Pratap Nagar",77.429989,23.232357,"North Indian, Chinese",1000.0,No,No,No,3,4.0,Green,Very Good,257
129,Pizza Hut,Bhopal,"DB City, Maharana Pratap Nagar",77.429845,23.232537,Pizza,650.0,No,No,No,2,4.1,Green,Very Good,118
131,Violet Hour,Bhopal,Kohefiza,77.3796051,23.26626099,Bakery,500.0,No,No,No,2,3.8,Yellow,Good,33
132,Bapu Ki Kutia,Bhopal,Maharana Pratap Nagar,77.433571,23.233219,"North Indian, Chinese, South Indian, Fast Food",550.0,No,No,No,2,3.5,Yellow,Good,175
134,Papa Mexicano,Bhopal,Maharana Pratap Nagar,77.43702042,23.23079116,"Fast Food, Mexican, Tex-Mex",350.0,No,No,No,2,3.6,Yellow,Good,20
136,Manohar Dairy And Restaurant,Bhopal,Maharana Pratap Nagar,77.434007,23.234249,"North Indian, South Indian, Street Food, Bakery",400.0,No,No,No,2,4.4,Green,Very Good,243
137,Manohar Dairy And Restaurant,Bhopal,Peer Gate Area,77.408236,23.264015,"North Indian, South Indian, Street Food, Bakery",400.0,No,No,No,2,4.1,Green,Very Good,238
138,Kebabsville - Sayaji Hotel,Bhopal,Sayaji Hotel,77.373573,23.218998,North Indian,1800.0,No,No,No,4,4.3,Green,Very Good,128
139,Indian Coffee House,Bhopal,TT Nagar,77.401663,23.234631,South Indian,500.0,No,No,No,2,3.9,Yellow,Good,161
141,Bake N Shake,Bhopal,TT Nagar,77.398886,23.235123,Fast Food,500.0,No,No,No,2,4.3,Green,Very Good,120
143,Silver Streak,Bhubaneshwar,"BMC Bhawani Mall, Sahid Nagar",85.846838,20.286333,Chinese,550.0,No,No,No,2,4.1,Green,Very Good,379
145,Central Perk 7,Bhubaneshwar,Chandrasekharpur,85.81781287,20.32553933,"Cafe, Charcoal Grill, Steak",600.0,No,No,No,2,4.5,Dark Green,Excellent,145
146,The Chicken Dinesty,Bhubaneshwar,Chandrasekharpur,85.81856667,20.32634444,"Fast Food, North Indian, Chinese",500.0,No,No,No,2,3.9,Yellow,Good,247
148,Michael's Kitchen,Bhubaneshwar,Gajapati Nagar,85.83394811,20.31149633,"North Indian, Asian, European",850.0,No,No,No,2,3.7,Yellow,Good,118
149,Mamma Mia - Mayfair Lagoon,Bhubaneshwar,"Mayfair Lagoon, Jayadev Vihar",85.819178,20.301785,"Cafe, Italian, Mexican, Bakery",1400.0,No,No,No,3,4.1,Green,Very Good,256
150,99 North Restaurant,Bhubaneshwar,Patia,85.80823611,20.34306944,"North Indian, Chinese",450.0,No,No,No,1,3.6,Yellow,Good,173
151,Adda,Bhubaneshwar,Patia,85.82272222,20.353675,"North Indian, Chinese, Mexican, Beverages",600.0,No,No,No,2,3.8,Yellow,Good,424
152,Chill Ummm,Bhubaneshwar,Patia,85.825257,20.35324774,"Chinese, North Indian, Cafe",450.0,No,No,No,1,3.7,Yellow,Good,338
153,Lal Qila,Bhubaneshwar,Patia,85.82685,20.35299167,"Mughlai, Chinese, North Indian",500.0,No,No,No,2,3.7,Yellow,Good,228
154,Richard's Kitchen & Coffee Bar,Bhubaneshwar,Patia,85.82599327,20.35343289,"Cafe, Chinese, Fast Food, Seafood",450.0,No,No,No,1,3.8,Yellow,Good,253
155,Aangan Horizon,Bhubaneshwar,Patia,85.82289287,20.34347604,"North Indian, Chinese, Continental",900.0,No,No,No,2,4.0,Green,Very Good,90
156,Brewberrys The Coffee Bar,Bhubaneshwar,Patia,85.81112333,20.34314407,Cafe,400.0,No,No,No,1,4.0,Green,Very Good,197
158,JUGAAD JN.,Bhubaneshwar,Patia,85.82225987,20.35348061,"North Indian, Rajasthani",300.0,No,No,No,1,4.1,Green,Very Good,199
159,Cha cTea,Bhubaneshwar,Sahid Nagar,85.84295925,20.29322917,"Cafe, Tea",500.0,No,No,No,2,3.8,Yellow,Good,56
160,Food Fever,Bhubaneshwar,Sahid Nagar,85.84516996,20.29575519,"Chinese, North Indian",900.0,No,No,No,2,4.2,Green,Very Good,49
161,Mainland China,Bhubaneshwar,"The Crown, Nayapalli",85.818494,20.292363,Chinese,1500.0,No,No,No,3,4.3,Green,Very Good,345
162,Eram Rooftop,Bhubaneshwar,Unit 4,85.82669624,20.28398889,"Asian, Continental",400.0,No,No,No,1,3.5,Yellow,Good,89
163,The Night Factory,Chandigarh,Chandigarh Industrial Area,76.801234,30.71005476,"North Indian, Chinese, Continental, Pizza",850.0,No,Yes,Yes,2,3.7,Yellow,Good,665
164,Brooklyn Central,Chandigarh,"Elante Mall, Chandigarh Industrial Area",76.8009555,30.7050693,"American, Cafe",1600.0,No,No,No,3,4.2,Green,Very Good,676
165,Chili's,Chandigarh,"Elante Mall, Chandigarh Industrial Area",76.8007752,30.7056682,"Mexican, American, Italian",1400.0,No,Yes,No,3,4.3,Green,Very Good,970
166,Kylin Experience,Chandigarh,"Elante Mall, Chandigarh Industrial Area",76.80064,30.7056102,"Japanese, Chinese, Thai, Malaysian, Burmese, Asian",1600.0,No,No,No,3,4.1,Green,Very Good,300
167,Mocha,Chandigarh,"Elante Mall, Chandigarh Industrial Area",76.8008653,30.7051482,"Continental, Italian, Thai, Finger Food",1400.0,No,No,No,3,4.0,Green,Very Good,428
168,Pirates of Grill,Chandigarh,"Elante Mall, Chandigarh Industrial Area",76.8009555,30.705775,"North Indian, Continental, Asian",1200.0,No,No,No,3,4.0,Green,Very Good,1022
169,Barbeque Nation,Chandigarh,Sector 26,76.8051917,30.7257045,"North Indian, Chinese",1300.0,No,No,No,3,4.5,Dark Green,Excellent,1450
170,TGI Friday's,Chandigarh,Sector 26,76.8063634,30.7249431,"American, Tex-Mex",1800.0,No,No,No,3,4.3,Green,Very Good,228
171,Pal Dhaba,Chandigarh,Sector 28,76.801316,30.7194841,North Indian,700.0,No,No,No,2,3.8,Yellow,Good,982
172,Midnight Chef,Chandigarh,Sector 35,76.76560555,30.72476574,"North Indian, Chinese, Continental, Italian, Burger",1000.0,No,Yes,No,3,3.4,Orange,Average,502
173,Nik Baker's,Chandigarh,Sector 35,76.76055595,30.72152328,"Bakery, Desserts, Cafe",650.0,No,No,No,2,4.1,Green,Very Good,698
174,OvenFresh,Chandigarh,Sector 35,76.7606106,30.7216086,"Cafe, Bakery",650.0,No,No,No,2,4.1,Green,Very Good,397
175,Super Donuts,Chandigarh,Sector 35,76.76028337,30.72137975,"Burger, Fast Food, Desserts, Beverages",450.0,No,Yes,No,1,4.0,Green,Very Good,265
176,Taco Bell,Chandigarh,Sector 35,76.75984483,30.72114167,"Mexican, Fast Food",600.0,No,Yes,No,2,4.2,Green,Very Good,252
177,Karim's,Chandigarh,Sector 7,76.8009793,30.7306181,"Mughlai, North Indian",800.0,No,No,No,2,3.3,Orange,Average,86
178,Virgin Courtyard,Chandigarh,Sector 7,76.7976205,30.7334795,Italian,2200.0,No,No,No,4,4.4,Green,Very Good,817
179,Burgrill,Chandigarh,Sector 8,76.7978909,30.740827,"Burger, Fast Food",500.0,No,Yes,No,2,4.5,Dark Green,Excellent,249
180,Uncle Jack's,Chandigarh,Sector 8,76.7972148,30.7408896,"Desserts, American",600.0,No,No,No,2,4.0,Green,Very Good,356
181,That Madras Place,Chennai,Adyar,80.250744,13.0058006,"European, Italian, Desserts",800.0,Yes,Yes,No,2,4.2,Green,Very Good,1810
182,Haunted,Chennai,Anna Nagar East,80.2206723,13.0864385,"North Indian, Chinese, Arabian",800.0,Yes,Yes,No,2,3.8,Yellow,Good,519
183,Pantry d'or,Chennai,Anna Nagar East,80.2191037,13.0918088,"Continental, Cafe, Italian, Desserts",750.0,Yes,Yes,No,2,4.4,Green,Very Good,1504
184,Palmshore,Chennai,Ashok Nagar,80.20881157,13.02977985,"North Indian, Mughlai, Chinese, South Indian",850.0,Yes,Yes,No,2,4.2,Green,Very Good,841
185,Chili's,Chennai,"Express Avenue Mall,  Royapettah",80.264151,13.058616,"Mexican, American, Tex-Mex, Burger",1700.0,Yes,Yes,No,3,4.8,Dark Green,Excellent,1262
186,Writer's Cafe,Chennai,Gopalapuram,80.25722075,13.05434714,"Cafe, European",450.0,No,Yes,No,1,4.2,Green,Very Good,191
187,Fusilli Reasons,Chennai,Kilpauk,80.24851944,13.08187778,Italian,350.0,No,No,No,1,4.6,Dark Green,Excellent,1510
188,Ciclo Cafe,Chennai,Kotturpuram,80.24243889,13.02239444,"Cafe, Continental",1100.0,No,No,No,3,4.1,Green,Very Good,1004
189,Kaidi Kitchen,Chennai,Mylapore,80.26147,13.044694,"Italian, Mexican, Chinese, Thai, North Indian",1500.0,Yes,Yes,No,3,4.0,Green,Very Good,1820
190,Bombay Brasserie,Chennai,Nungambakkam,80.251865,13.066762,North Indian,1200.0,Yes,Yes,No,3,4.6,Dark Green,Excellent,1753
191,Maplai,Chennai,Nungambakkam,80.23644167,13.06418056,"South Indian, Chettinad",1000.0,Yes,No,No,3,4.2,Green,Very Good,1714
192,Paradise,Chennai,Perungudi,80.24998214,12.97279291,"Biryani, North Indian",900.0,No,Yes,No,2,3.8,Yellow,Good,1317
193,L'amandier,Chennai,RA Puram,80.25479067,13.02701773,"European, Cafe, Italian",1200.0,Yes,Yes,No,3,4.3,Green,Very Good,1607
194,Palmshore,Chennai,Ramapuram,80.17456822,13.02627908,"North Indian, Mughlai, Chinese, South Indian",850.0,Yes,Yes,No,2,4.4,Green,Very Good,645
195,Palmshore,Chennai,Santhome,80.2752348,13.02628637,"North Indian, Mughlai, Chinese, South Indian",850.0,Yes,Yes,No,2,4.3,Green,Very Good,742
196,Basil With A Twist,Chennai,T. Nagar,80.24226844,13.04964535,"Continental, Cafe, Spanish, Italian, European, Greek, Mediterranean",1500.0,Yes,Yes,No,3,4.5,Dark Green,Excellent,1210
197,Barbeque Nation,Chennai,T. Nagar,80.23311,13.045479,"North Indian, Continental",2000.0,No,No,No,4,4.4,Green,Very Good,3848
198,AB's - Absolute Barbecues,Chennai,Velachery,80.231598,12.981615,"North Indian, European, Mediterranean",1600.0,No,No,No,3,4.9,Dark Green,Excellent,859
199,Coal Barbecues,Chennai,Velachery,80.21811381,12.98604688,"North Indian, Mediterranean, Asian, Arabian",1400.0,No,No,No,3,4.6,Dark Green,Excellent,1267
200,Pind,Chennai,Velachery,80.221898,12.975996,"North Indian, Chinese",900.0,Yes,No,No,2,4.0,Green,Very Good,2272
201,Kuchi n Kream,Coimbatore,Gandhipuram,76.9720757,11.01629845,"Cafe, Continental, Fast Food",800.0,No,Yes,No,3,4.6,Dark Green,Excellent,202
202,Haribhavanam Hotel,Coimbatore,Peelamedu,76.995667,11.022477,"South Indian, Chettinad, North Indian",600.0,No,No,No,2,3.9,Yellow,Good,318
203,Kites Cafe,Coimbatore,Peelamedu,77.015393,11.025083,Cafe,400.0,No,Yes,No,2,3.8,Yellow,Good,124
204,Zucca Pizzeria,Coimbatore,Peelamedu,77.00700302,11.02483917,Pizza,600.0,No,Yes,No,2,3.5,Yellow,Good,274
205,Burger Ka Baap,Coimbatore,Peelamedu,76.99959444,11.02216944,Fast Food,500.0,No,No,No,2,4.3,Green,Very Good,147
206,The Cascade Restaurant,Coimbatore,Peelamedu,76.99501667,11.02127778,Chinese,1200.0,No,Yes,No,3,4.1,Green,Very Good,243
207,24 Plus Cafe & Restaurant,Coimbatore,Podanur,76.971082,10.96185,"Continental, Fast Food, Desserts, Indian",450.0,No,No,No,2,3.8,Yellow,Good,24
208,Valarmathi Kongunaatu Samayal,Coimbatore,Race Course,76.976268,11.001852,"South Indian, Biryani",350.0,No,No,No,2,4.5,Dark Green,Excellent,380
209,Bird On Tree,Coimbatore,Race Course,76.98431119,11.00863836,"Continental, Chinese, Thai, Malaysian, North Indian",1200.0,No,No,No,3,3.8,Yellow,Good,221
210,Tim's Bistro,Coimbatore,Race Course,76.9754397,11.0030085,"North Indian, Continental",700.0,No,Yes,No,2,3.9,Yellow,Good,85
211,Batlivala & Khanabhoy,Coimbatore,Race Course,76.98624135,11.00175265,"Parsi, North Indian",1200.0,No,No,No,3,4.2,Green,Very Good,40
212,Cafe Totaram,Coimbatore,Race Course,76.98187642,11.00076241,"Cafe, Fast Food",600.0,No,Yes,No,2,4.0,Green,Very Good,132
213,Cream Centre,Coimbatore,Race Course,76.97649444,11.00366944,"North Indian, Chinese, Italian, Mexican",1000.0,No,No,No,3,4.0,Green,Very Good,203
214,On The Go,Coimbatore,Race Course,76.975525,11.00368056,"Italian, North Indian, Desserts",1500.0,No,No,No,4,4.0,Green,Very Good,215
215,Sree Annapoorna,Coimbatore,RS Puram,76.95173611,11.00668611,"South Indian, North Indian, Chinese",400.0,No,No,No,2,4.3,Green,Very Good,225
216,That's Y Food,Coimbatore,RS Puram,76.95295,11.010375,"North Indian, Biryani",1400.0,No,No,No,3,4.2,Green,Very Good,299
217,CakeBee,Coimbatore,Saibaba Colony,76.94465239,11.02611735,"Bakery, Desserts",350.0,No,Yes,No,2,4.9,Dark Green,Excellent,200
218,Yari,Coimbatore,Saibaba Colony,76.940432,11.02091,"North Indian, Chinese, Street Food",700.0,No,No,No,2,4.2,Green,Very Good,221
219,Cream Stone,Coimbatore,"SMS Hotel, Peelamedu",76.9983492,11.02229761,"Desserts, Ice Cream",300.0,No,No,No,1,4.3,Green,Very Good,161
220,Barbeque Nation,Coimbatore,Town Hall,76.96330278,10.99413611,"North Indian, European, Mediterranean",1400.0,No,No,No,3,4.4,Green,Very Good,505
223,Anandam,Dehradun,Hathibarkala Salwala,78.053162,30.335259,"Desserts, North Indian, Chinese, South Indian, Fast Food, Street Food",650.0,No,No,No,3,3.9,Yellow,Good,141
224,Town Table Restaurant,Dehradun,Hathibarkala Salwala,78.060221,30.340722,"North Indian, Chinese, Continental",1000.0,No,No,No,4,3.9,Yellow,Good,173
225,Kalsang Friends Corner,Dehradun,Hathibarkala Salwala,78.062543,30.346994,"Chinese, Thai, Tibetan",750.0,No,No,No,3,4.2,Green,Very Good,406
226,The Great Indian Pub,Dehradun,Jakhan,78.06802238,30.36128079,North Indian,1500.0,No,No,No,4,4.9,Dark Green,Excellent,50
228,Punjab Grill,Dehradun,Jakhan,78.067079,30.359722,"Mughlai, North Indian",1250.0,No,No,No,4,4.0,Green,Very Good,98
229,TBistro,Dehradun,Karanpur,78.054222,30.332735,"North Indian, Chinese",550.0,No,No,No,3,3.8,Yellow,Good,230
230,Y Cafe & Restaurant,Dehradun,Karanpur,78.049117,30.328174,Cafe,500.0,No,No,No,3,4.0,Green,Very Good,94
233,Dunkin Donuts,Dehradun,"Pacific Mall, Jakhan",78.070453,30.366322,"Burger, Desserts",600.0,No,No,No,3,3.9,Yellow,Good,101
234,Doon Darbar,Dehradun,Paltan Bazaar,78.04026667,30.31952778,"North Indian, Mughlai",600.0,No,No,No,3,3.9,Yellow,Good,121
236,Barbeque Nation,Dehradun,Rajpur,78.061187,30.3425093,"North Indian, Mediterranean, Asian, Chinese",1600.0,No,No,No,4,4.4,Green,Very Good,66
237,Black Pepper Restaurant,Dehradun,Rajpur,78.046106,30.327968,"North Indian, Chinese",1200.0,No,No,No,4,4.0,Green,Very Good,175
239,Jalapenos,Dehradun,Rajpur,78.07715102,30.37220198,"Cafe, Mexican",500.0,No,No,No,3,4.2,Green,Very Good,68
241,Desire Foods,Faridabad,Badarpur Border,77.3066401,28.4900591,"Chinese, Fast Food, Bakery",250.0,No,No,No,1,2.9,Orange,Average,4
242,Knight Rock,Faridabad,Badarpur Border,77.304776,28.4901567,"North Indian, Chinese",500.0,No,No,No,2,2.8,Orange,Average,16
243,Punjab Restaurant,Faridabad,Badarpur Border,77.305563,28.4901368,North Indian,150.0,No,No,No,1,2.8,Orange,Average,8
244,Raju Dhaba,Faridabad,Badarpur Border,77.3061016,28.4900979,North Indian,150.0,No,No,No,1,2.9,Orange,Average,8
245,Rakheja Bakery,Faridabad,Badarpur Border,77.3057446,28.490062,Bakery,100.0,No,No,No,1,2.8,Orange,Average,7
246,Snax Points,Faridabad,Badarpur Border,77.3053835,28.4901198,"Chinese, North Indian, Fast Food",300.0,No,No,No,1,3.0,Orange,Average,4
247,Aggarwal Sweet Corner,Faridabad,Badarpur Border,77.30274167,28.49629167,Mithai,100.0,No,No,No,1,0.0,White,Not rated,1
248,Kashyap Vaishno Dhaba,Faridabad,Badarpur Border,77.303542,28.4959154,North Indian,100.0,No,No,No,1,0.0,White,Not rated,3
250,The Chaiwalas,Faridabad,Badkal Lake,77.3000877,28.4262842,Cafe,300.0,No,No,No,1,0.0,White,Not rated,0
251,Cafe And More,Faridabad,Charmwood Village,77.2905651,28.4946638,"Fast Food, North Indian",300.0,No,No,No,1,2.9,Orange,Average,4
252,Green Chick Chop,Faridabad,Charmwood Village,77.2905276,28.4946804,"Raw Meats, North Indian, Fast Food",350.0,No,No,No,1,3.0,Orange,Average,7
253,Kolkata Hot Kathi Rolls,Faridabad,Charmwood Village,77.2918292,28.4922473,"Fast Food, Chinese",300.0,No,No,No,1,2.9,Orange,Average,11
254,Aapki Rasoi,Faridabad,Charmwood Village,77.2918292,28.4990636,North Indian,200.0,No,No,No,1,0.0,White,Not rated,1
256,Punjabi Rasoi,Faridabad,Charmwood Village,77.292431,28.4923251,North Indian,400.0,No,No,No,1,0.0,White,Not rated,0
257,Kebab Xpress,Faridabad,"Crown Interiorz Mall, Sector 35, Faridabad",77.3074479,28.4698631,"North Indian, Mughlai",600.0,No,Yes,No,2,2.8,Orange,Average,49
258,McDonald's,Faridabad,"Crown Interiorz Mall, Sector 35, Faridabad",77.3074479,28.4695043,"Fast Food, Burger",500.0,No,No,No,2,3.4,Orange,Average,58
259,Suruchi,Faridabad,"Crown Interiorz Mall, Sector 35, Faridabad",77.3074479,28.4701322,"North Indian, South Indian, Gujarati, Rajasthani",700.0,No,No,No,2,3.4,Orange,Average,233
260,Berco's,Faridabad,"Crown Interiorz Mall, Sector 35, Faridabad",77.3072684,28.4700256,"Chinese, Thai",1100.0,No,Yes,No,3,3.8,Yellow,Good,508
261,Dunkin' Donuts,Faridabad,"Crown Interiorz Mall, Sector 35, Faridabad",77.3074031,28.4693655,"Burger, Desserts, Fast Food",600.0,No,Yes,No,2,3.6,Yellow,Good,98
262,The Chocolate Room,Faridabad,"Crown Interiorz Mall, Sector 35, Faridabad",77.3074031,28.4693655,"Cafe, Desserts",900.0,No,Yes,No,2,3.6,Yellow,Good,59
263,Baskin Robbin,Faridabad,"Crown Interiorz Mall, Sector 35, Faridabad",77.3074479,28.469594,Desserts,300.0,No,No,No,1,0.0,White,Not rated,0
264,Popcorn Fusion,Faridabad,"Crown Interiorz Mall, Sector 35, Faridabad",77.3074031,28.4693655,Fast Food,200.0,No,No,No,1,0.0,White,Not rated,1
265,Subway,Faridabad,"Crown Interiorz Mall, Sector 35, Faridabad",77.3074928,28.4700019,"American, Fast Food, Salad, Healthy Food",500.0,No,No,No,2,0.0,White,Not rated,2
266,KFC,Faridabad,"Crown Interiorz Mall, Sector 35, Faridabad",77.30706006,28.46980656,"American, Fast Food, Burger",500.0,No,Yes,No,2,2.1,Red,Poor,57
267,Barbeque Nation,Faridabad,"Crown Interiorz Mall, Sector 35, Faridabad",77.3073785,28.4698629,North Indian,1600.0,No,No,No,3,4.0,Green,Very Good,299
268,Yo! China,Faridabad,"Crown Interiorz Mall, Sector 35, Faridabad",77.3074031,28.4693655,Chinese,1300.0,No,Yes,No,3,4.1,Green,Very Good,239
269,Giani's,Faridabad,"Crown Plaza Mall, Sector 15, Faridabad",77.3130127,28.3980691,"Ice Cream, Desserts",400.0,No,No,No,1,3.2,Orange,Average,16
270,Momo-Cha,Faridabad,"Crown Plaza Mall, Sector 15, Faridabad",77.3130127,28.3979794,Fast Food,200.0,No,Yes,No,1,2.7,Orange,Average,16
271,Shree Rathnam,Faridabad,"Crown Plaza Mall, Sector 15, Faridabad",77.3128332,28.397424,"South Indian, North Indian, Chinese",800.0,No,Yes,No,2,3.4,Orange,Average,48
272,Mirage Restro Bar,Faridabad,"Crown Plaza Mall, Sector 15, Faridabad",77.3131025,28.3978083,"North Indian, Mughlai",1000.0,Yes,No,No,3,2.4,Red,Poor,25
273,Jai Jagannath Hotel,Faridabad,Dayal Bagh,77.294319,28.4937692,South Indian,200.0,No,No,No,1,0.0,White,Not rated,3
274,Gelato Vinto,Faridabad,"Eldeco Station 1 Mall, Sector 12, Faridabad",77.3139102,28.3868454,"Desserts, Ice Cream",250.0,No,No,No,1,2.8,Orange,Average,12
275,Maggi Point,Faridabad,"Eldeco Station 1 Mall, Sector 12, Faridabad",77.3140449,28.3869029,Fast Food,200.0,No,No,No,1,0.0,White,Not rated,2
276,Angaar,Faridabad,"Hotel Saffron Kiran, Faridabad",77.3056977,28.4719854,"North Indian, Chinese",1200.0,Yes,No,No,3,0.0,White,Not rated,0
277,TcozY,Faridabad,"Hotel Saffron Kiran, Faridabad",77.3066401,28.4722089,Cafe,1500.0,No,No,No,3,0.0,White,Not rated,0
278,The Retriever,Faridabad,"Hotel Saffron Kiran, Faridabad",77.3062507,28.4723428,"North Indian, Mughlai, Chinese",1500.0,Yes,No,No,3,0.0,White,Not rated,0
279,Bangali Sweets & Restaurant,Faridabad,Indraprastha Colony,77.3153578,28.4534629,Mithai,100.0,No,No,No,1,0.0,White,Not rated,2
280,Silver,Faridabad,K Hotel,77.316429,28.446715,"North Indian, Chinese, Continental",1500.0,Yes,No,No,3,0.0,White,Not rated,3
281,Chill 'N Grill,Faridabad,NIT,77.2900667,28.3954463,North Indian,300.0,No,No,No,1,0.0,White,Not rated,0
282,Punjabi Restaurant,Faridabad,NIT,77.2874809,28.3939512,"North Indian, Mughlai",500.0,No,No,No,2,0.0,White,Not rated,0
283,Standard Chicken Point,Faridabad,NIT,77.2875524,28.3940171,Mughlai,500.0,No,No,No,2,0.0,White,Not rated,0
284,The Grillz & Gravy,Faridabad,NIT,77.2922781,28.3982684,"North Indian, Chinese",400.0,No,No,No,1,0.0,White,Not rated,0
285,Cakes 'n Bakes - Park Plaza,Faridabad,"Park Plaza, Sector 21, Faridabad",77.2969459,28.4292178,Bakery,1000.0,No,No,No,3,3.0,Orange,Average,15
286,Cafe Bite,Faridabad,"Parsavnath City Mall, Sector 12, Faridabad",77.3144487,28.383665,Cafe,500.0,No,No,No,2,3.2,Orange,Average,19
287,Cafe Light,Faridabad,"Parsavnath City Mall, Sector 12, Faridabad",77.3144877,28.3837046,"Cafe, Chinese, Fast Food",500.0,No,No,No,2,2.8,Orange,Average,8
288,Little Cafe,Faridabad,"Parsavnath City Mall, Sector 12, Faridabad",77.3145373,28.3836738,"Fast Food, Beverages",300.0,No,No,No,1,0.0,White,Not rated,0
289,Momo-Cha,Faridabad,Sector 10,77.3291609,28.3754863,"North Indian, Chinese",450.0,No,No,No,1,2.8,Orange,Average,20
290,Oregano India,Faridabad,Sector 10,77.3266079,28.3689797,"Fast Food, Chinese, Italian",500.0,No,No,No,2,3.1,Orange,Average,11
291,Sagar Bakery,Faridabad,Sector 10,77.3270132,28.3692291,Bakery,150.0,No,No,No,1,3.0,Orange,Average,11
292,Smugglers,Faridabad,Sector 10,77.329628,28.3702087,North Indian,450.0,No,Yes,No,1,3.1,Orange,Average,7
293,Welcome,Faridabad,Sector 10,77.3288978,28.3777541,"North Indian, Chinese",700.0,Yes,No,No,2,2.9,Orange,Average,13
294,Giani's,Faridabad,Sector 10,77.3270132,28.3692291,"Ice Cream, Desserts",400.0,No,No,No,1,0.0,White,Not rated,0
296,New Dilight,Faridabad,Sector 10,77.3295018,28.3730138,"North Indian, Mughlai, Chinese",500.0,No,No,No,2,0.0,White,Not rated,0
297,Chimney,Faridabad,Sector 11,77.319026,28.3725172,"North Indian, Mughlai, Chinese",800.0,Yes,Yes,No,2,3.3,Orange,Average,25
298,Chopstick,Faridabad,Sector 11,77.3185858,28.371835,Chinese,300.0,No,No,No,1,3.0,Orange,Average,22
299,Hot & Tasty Chinese Food,Faridabad,Sector 11,77.3184832,28.3719511,"North Indian, Chinese",450.0,No,No,No,1,2.6,Orange,Average,26
300,Sanjha Chulha,Faridabad,Sector 11,77.32157,28.3692881,"North Indian, Mughlai",700.0,No,Yes,No,2,2.9,Orange,Average,16
301,Frontier,Faridabad,Sector 12,77.31429167,28.38339444,Bakery,200.0,No,No,No,1,2.9,Orange,Average,7
302,Oxy Lounge,Faridabad,Sector 12,77.3244365,28.384502,"North Indian, Chinese, Italian",1500.0,Yes,Yes,No,3,3.1,Orange,Average,28
303,City Dhaba,Faridabad,Sector 12,77.3144456,28.3811924,"North Indian, Chinese",550.0,No,No,No,2,0.0,White,Not rated,0
305,Mittal Fast Food,Faridabad,Sector 12,77.32425,28.38471389,Fast Food,100.0,No,No,No,1,0.0,White,Not rated,0
306,Al Bake,Faridabad,Sector 15,77.3229299,28.395009,"North Indian, Chinese",600.0,No,Yes,No,2,3.2,Orange,Average,31
307,Anupam Sweet,Faridabad,Sector 15,77.3222568,28.3949008,"North Indian, South Indian, Chinese, Fast Food, Mithai",400.0,No,No,No,1,3.4,Orange,Average,70
308,Cafe Coffee Day,Faridabad,Sector 15,77.3236112,28.3952671,Cafe,450.0,No,No,No,1,3.3,Orange,Average,67
309,Chicago Pizza,Faridabad,Sector 15,77.3217184,28.3950296,Pizza,600.0,No,No,No,2,2.7,Orange,Average,35
310,Crispy Crust,Faridabad,Sector 15,77.3241683,28.3950992,"North Indian, Chinese, Fast Food",500.0,No,Yes,No,2,3.4,Orange,Average,22
311,Frontier,Faridabad,Sector 15,77.3235114,28.3951274,Bakery,200.0,No,No,No,1,3.3,Orange,Average,17
312,Gulab,Faridabad,Sector 15,77.3239437,28.3952906,"North Indian, South Indian, Fast Food, Street Food, Mithai",600.0,No,Yes,No,2,2.6,Orange,Average,39
313,Hunger Cure Express,Faridabad,Sector 15,77.3217312,28.3946937,"Fast Food, Beverages",500.0,No,No,No,2,3.3,Orange,Average,35
315,Momo-Cha,Faridabad,Sector 15,77.3224363,28.3951869,"Chinese, Fast Food",400.0,No,No,No,1,2.7,Orange,Average,32
316,Nirula's,Faridabad,Sector 15,77.292179,28.452631,"Fast Food, Desserts, Ice Cream, Beverages",950.0,No,No,No,2,2.6,Orange,Average,14
317,The Grub House,Faridabad,Sector 15,77.323244,28.3950834,"Cafe, North Indian, Chinese, Continental",600.0,No,No,No,2,2.7,Orange,Average,17
318,Twenty Four Seven,Faridabad,Sector 15,77.3234608,28.3950913,"Fast Food, North Indian",300.0,No,No,No,1,3.4,Orange,Average,35
319,Cafe Parmesan,Faridabad,Sector 15,77.3236479,28.3950766,Italian,1000.0,No,No,No,3,4.5,Dark Green,Excellent,799
320,Briosca,Faridabad,Sector 15,77.3234235,28.3952798,"Bakery, Fast Food",400.0,No,Yes,No,1,3.6,Yellow,Good,62
321,Burger Point,Faridabad,Sector 15,77.3220773,28.3949736,"Burger, Fast Food",300.0,No,Yes,No,1,3.5,Yellow,Good,24
322,Cafe Grub Up,Faridabad,Sector 15,77.3235233,28.395196,"Cafe, American, Mexican, Italian, Thai",900.0,Yes,No,No,2,3.8,Yellow,Good,134
323,Cakes At Bhawanas,Faridabad,Sector 15,77.317231,28.393261,Bakery,400.0,No,No,No,1,3.5,Yellow,Good,26
324,Chaudhary Bhojnalaya,Faridabad,Sector 15,77.3240517,28.3953389,North Indian,400.0,No,No,No,1,3.6,Yellow,Good,93
325,Chickenette,Faridabad,Sector 15,77.3244107,28.3951035,"Raw Meats, North Indian, Chinese, Fast Food",650.0,No,No,No,2,3.7,Yellow,Good,280
326,Giani,Faridabad,Sector 15,77.3216428,28.3951385,"Ice Cream, Desserts",400.0,No,No,No,1,3.6,Yellow,Good,70
327,Green Chick Chop,Faridabad,Sector 15,77.3244107,28.3951932,"Raw Meats, North Indian, Fast Food",350.0,No,No,No,1,3.5,Yellow,Good,31
328,Hash Stix,Faridabad,Sector 15,77.32343964,28.39483205,Fast Food,250.0,No,No,No,1,3.6,Yellow,Good,25
329,Juice On Go,Faridabad,Sector 15,77.32328642,28.39527358,"Juices, Beverages",150.0,No,No,No,1,3.5,Yellow,Good,18
330,Keventers,Faridabad,Sector 15,77.3218081,28.3947688,Beverages,400.0,No,No,No,1,3.6,Yellow,Good,27
331,MD's Kebabs & Curries,Faridabad,Sector 15,77.3244107,28.395283,"North Indian, Mughlai, Chinese",750.0,No,Yes,No,2,3.8,Yellow,Good,27
332,Perfect Bake,Faridabad,Sector 15,77.29659833,28.43002333,"Bakery, Fast Food",400.0,No,No,No,1,3.5,Yellow,Good,39
333,Perfect Bake,Faridabad,Sector 15,77.3231543,28.3952545,"Bakery, Fast Food",400.0,No,No,No,1,3.6,Yellow,Good,126
334,Sethi's Delicacy,Faridabad,Sector 15,77.3244651,28.3950376,"Fast Food, Bakery",150.0,No,No,No,1,3.8,Yellow,Good,75
335,Subway,Faridabad,Sector 15,77.3219427,28.3948264,"American, Fast Food, Salad, Healthy Food",500.0,No,No,No,2,3.5,Yellow,Good,143
336,CafÌ© Bogchi,Faridabad,Sector 15,77.32380275,28.39572041,"Cafe, Italian, Mexican, Continental",650.0,No,Yes,No,2,4.1,Green,Very Good,153
337,Ashoka Restaurant,Faridabad,Sector 16,77.3203273,28.4104693,North Indian,400.0,No,No,No,1,2.9,Orange,Average,43
338,Baskin Robbins,Faridabad,Sector 16,77.3201927,28.4107707,Ice Cream,300.0,No,Yes,No,1,2.9,Orange,Average,4
339,China Hot Pot,Faridabad,Sector 16,77.3192063,28.4106963,"Chinese, Fast Food",400.0,No,No,No,1,2.5,Orange,Average,25
340,Handi Chhadeyan Di,Faridabad,Sector 16,77.3185323,28.4106593,North Indian,400.0,No,No,No,1,3.1,Orange,Average,26
341,Hungrill,Faridabad,Sector 16,77.3190765,28.4108198,"North Indian, Chinese, Continental",500.0,No,No,No,2,3.0,Orange,Average,4
342,Kant Khana Khazana,Faridabad,Sector 16,77.318667,28.4106772,North Indian,250.0,No,No,No,1,3.4,Orange,Average,22
343,Open Yard,Faridabad,Sector 16,77.3199015,28.4095652,"North Indian, Chinese, Continental",800.0,Yes,No,No,2,3.3,Orange,Average,14
345,The Chai Cafe,Faridabad,Sector 16,77.3185772,28.4108878,"Cafe, Chinese",400.0,No,No,No,1,3.1,Orange,Average,8
346,Apna Restaurant,Faridabad,Sector 16,77.3190262,28.4105451,North Indian,400.0,No,No,No,1,0.0,White,Not rated,0
347,Chaudhary Chaap & Chinese,Faridabad,Sector 16,77.3187017,28.4106649,"Chinese, North Indian",300.0,No,No,No,1,0.0,White,Not rated,0
348,Chings Chinese,Faridabad,Sector 16,77.3200132,28.4118307,Chinese,300.0,No,No,No,1,0.0,White,Not rated,0
349,Food On Wheels,Faridabad,Sector 16,77.3202824,28.4120355,Chinese,300.0,No,No,No,1,0.0,White,Not rated,0
350,Gulshan Hotel,Faridabad,Sector 16,77.3203273,28.4104693,North Indian,250.0,No,No,No,1,0.0,White,Not rated,2
351,Maa Kali Foods,Faridabad,Sector 16,77.3196991,28.4104999,Chinese,250.0,No,No,No,1,0.0,White,Not rated,0
352,The Street Kitchen,Faridabad,Sector 16,77.3185772,28.4107084,"North Indian, Chinese",400.0,No,No,No,1,0.0,White,Not rated,0
353,United Kitchen,Faridabad,Sector 16,77.3189708,28.4120254,Fast Food,500.0,No,No,No,2,0.0,White,Not rated,0
354,Eat N Treat,Faridabad,Sector 17,77.3266023,28.4101024,"Chinese, North Indian",400.0,No,No,No,1,2.8,Orange,Average,20
355,Hotel Ekant,Faridabad,Sector 17,77.329167,28.4101795,"North Indian, Mughlai, Chinese",700.0,No,No,No,2,2.7,Orange,Average,39
356,Momo-Cha,Faridabad,Sector 17,77.3288978,28.4106029,"North Indian, Chinese",600.0,No,Yes,No,2,2.7,Orange,Average,56
357,Paradise Inn,Faridabad,Sector 17,77.3275764,28.4103725,"North Indian, Mughlai, Chinese",500.0,No,No,No,2,2.7,Orange,Average,43
358,Red Chilli,Faridabad,Sector 17,77.326744,28.4099515,Chinese,300.0,No,No,No,1,2.8,Orange,Average,9
359,Shiv Restaurant,Faridabad,Sector 17,77.3278324,28.4101647,North Indian,400.0,No,No,No,1,2.7,Orange,Average,20
360,Sohan Sweets & Namkeen,Faridabad,Sector 17,77.3279106,28.4103306,Mithai,100.0,No,No,No,1,3.2,Orange,Average,41
361,The Binge Box Cafe,Faridabad,Sector 17,77.3279106,28.4105998,Cafe,500.0,No,No,No,2,3.4,Orange,Average,18
362,Tmos Moving Feast,Faridabad,Sector 17,77.32609671,28.4101156,"Chinese, North Indian",700.0,No,Yes,No,2,3.3,Orange,Average,76
363,Tmos Cafe Corner,Faridabad,Sector 17,77.326227,28.409801,Cafe,700.0,Yes,Yes,No,2,0.0,White,Not rated,1
364,Parkash Dhaba,Faridabad,Sector 19,77.3138205,28.417529,"North Indian, Chinese",200.0,No,No,No,1,3.0,Orange,Average,6
365,Sanjha Chulha,Faridabad,Sector 19,77.3144487,28.4175882,"North Indian, Mughlai",700.0,No,Yes,No,2,3.3,Orange,Average,219
366,Hareram Bikanerzaika,Faridabad,Sector 21,77.2969594,28.4304159,"Mithai, Street Food",200.0,No,No,No,1,2.8,Orange,Average,11
367,Kulcha Paaji,Faridabad,Sector 21,77.2967664,28.4317132,Street Food,100.0,No,No,No,1,3.1,Orange,Average,12
368,Shree Bikaner Misthan Bhandar,Faridabad,Sector 21,77.2964432,28.4301217,"Street Food, South Indian, Mithai",350.0,No,No,No,1,2.8,Orange,Average,13
370,Anand Dhaba,Faridabad,Sector 21,77.2963379,28.4298355,North Indian,200.0,No,No,No,1,0.0,White,Not rated,1
372,Delicieux Ice Cream Rolls,Faridabad,Sector 21,77.2969354,28.4300562,"Ice Cream, Desserts, Beverages",400.0,No,No,No,1,0.0,White,Not rated,1
373,Flying Tandoor,Faridabad,Sector 21,77.291919,28.4221037,"North Indian, Fast Food",300.0,No,No,No,1,0.0,White,Not rated,3
375,Grub Hub,Faridabad,Sector 21,77.2964494,28.4296999,Asian,500.0,No,No,No,2,0.0,White,Not rated,1
376,Punjabi Chulha,Faridabad,Sector 21,77.2965369,28.4298396,North Indian,300.0,No,No,No,1,0.0,White,Not rated,3
377,Purani Dilli Da Swad,Faridabad,Sector 21,77.2966226,28.4301909,"Street Food, Fast Food",100.0,No,No,No,1,0.0,White,Not rated,2
379,The Chaiwalas,Faridabad,Sector 21,77.3002223,28.4263417,Cafe,300.0,No,No,No,1,0.0,White,Not rated,0
380,Funk House Cafe,Faridabad,Sector 28,77.31297973,28.43892133,"Cafe, Italian, Salad",650.0,No,Yes,No,2,2.6,Orange,Average,15
381,Shiksha Fast Food,Faridabad,Sector 28,77.315069,28.4353341,"Fast Food, Chinese",200.0,No,No,No,1,2.9,Orange,Average,5
382,Hungry Head,Faridabad,Sector 28,77.3150688,28.4353375,"Street Food, Fast Food",200.0,No,No,No,1,0.0,White,Not rated,0
384,Lalit Kathi Rolls Momos,Faridabad,Sector 29,77.3211256,28.4334516,Fast Food,100.0,No,No,No,1,3.1,Orange,Average,9
385,Tamasha In Tafree,Faridabad,Sector 29,77.3212535,28.4334249,Cafe,600.0,No,No,No,2,0.0,White,Not rated,3
387,Butter & Grace,Faridabad,Sector 31,77.309147,28.446933,"North Indian, Chinese, Italian, Fast Food",700.0,No,Yes,No,2,3.1,Orange,Average,7
388,Green Chick Chop,Faridabad,Sector 31,77.317127,28.4465451,"Raw Meats, North Indian, Fast Food",350.0,No,No,No,1,3.1,Orange,Average,9
389,Snacks Bar,Faridabad,Sector 31,77.315795,28.4452616,Chinese,350.0,No,No,No,1,2.9,Orange,Average,4
390,Ahata,Faridabad,Sector 31,77.31723889,28.44589444,North Indian,500.0,No,No,No,2,0.0,White,Not rated,1
393,Meghansh Bakery,Faridabad,Sector 31,77.3170515,28.4466361,"Bakery, Desserts",200.0,No,No,No,1,0.0,White,Not rated,2
394,Oh My !,Faridabad,Sector 31,77.3159508,28.4549967,"North Indian, Chinese",300.0,No,No,No,1,0.0,White,Not rated,1
396,Anupama Sweets & Family Restaurant,Faridabad,Sector 34,77.3149118,28.4718644,"Mithai, North Indian, South Indian, Chinese, Fast Food",400.0,No,Yes,No,1,2.7,Orange,Average,28
397,Shree Rathnam,Faridabad,Sector 34,77.3107195,28.471413,"South Indian, North Indian, Chinese",800.0,No,No,No,2,2.7,Orange,Average,29
398,Bikaner Misthan Bhandar,Faridabad,Sector 35,77.3108138,28.471302,"Mithai, Street Food, Fast Food",150.0,No,No,No,1,0.0,White,Not rated,0
399,King's Kitchen,Faridabad,Sector 35,77.3108138,28.471302,"North Indian, Mughlai, Chinese",400.0,No,No,No,1,0.0,White,Not rated,1
400,Muradabadi Chicken Biryani Corner,Faridabad,Sector 35,77.3060306,28.4749127,Mughlai,500.0,No,No,No,2,0.0,White,Not rated,0
401,The Black Kettle,Faridabad,Sector 35,77.3105616,28.4711559,"Fast Food, Beverages",100.0,No,No,No,1,0.0,White,Not rated,0
402,Desi Tadka,Faridabad,Sector 37,77.30693936,28.48429689,"North Indian, Mughlai, Chinese",500.0,No,No,No,2,3.0,Orange,Average,6
403,Destination Live,Faridabad,Sector 37,77.3062811,28.4807864,"North Indian, Mughlai, Chinese",500.0,Yes,No,No,2,3.3,Orange,Average,12
404,Kay's Bake Land,Faridabad,Sector 37,77.3116575,28.480381,"Bakery, Desserts",150.0,No,No,No,1,3.1,Orange,Average,19
405,Kay's Food Land,Faridabad,Sector 37,77.3104099,28.4805482,"Bakery, Desserts",100.0,No,No,No,1,3.1,Orange,Average,14
406,Laziz Restaurant,Faridabad,Sector 37,77.30677778,28.48426667,"North Indian, Mughlai",600.0,No,No,No,2,2.8,Orange,Average,11
407,Le Chef Restro Bar,Faridabad,Sector 37,77.3104996,28.480467,"North Indian, Chinese",1000.0,Yes,No,No,3,2.7,Orange,Average,70
408,Republic of Chicken,Faridabad,Sector 37,77.3107689,28.4805821,"Raw Meats, Fast Food",400.0,No,No,No,1,3.1,Orange,Average,18
409,Tanishka Restaurant & Caterers,Faridabad,Sector 37,77.3113972,28.4805517,"North Indian, Chinese",300.0,No,No,No,1,2.9,Orange,Average,14
410,The Tandoori Times,Faridabad,Sector 37,77.3115506,28.4804188,North Indian,500.0,No,No,No,2,2.7,Orange,Average,48
411,Twist of Italy,Faridabad,Sector 37,77.3109543,28.4807634,"Chinese, Fast Food",350.0,No,No,No,1,3.6,Yellow,Good,52
412,Aggarwal Sweets And Caterers,Faridabad,Sector 37,77.3066403,28.48420819,"Mithai, Street Food",100.0,No,No,No,1,0.0,White,Not rated,1
413,Biryani Bot,Faridabad,Sector 37,77.311746,28.4805778,Biryani,200.0,No,No,No,1,0.0,White,Not rated,0
414,CafÌ© Kitchen,Faridabad,Sector 37,77.3114869,28.4808293,"North Indian, Chinese",300.0,No,No,No,1,0.0,White,Not rated,0
415,Evergreen Sweets & Restaurant,Faridabad,Sector 37,77.3106046,28.4803991,"North Indian, South Indian, Chinese, Fast Food",400.0,No,No,No,1,0.0,White,Not rated,2
416,Magic Spice Wok,Faridabad,Sector 37,77.3113363,28.4806939,"Chinese, Fast Food",300.0,No,No,No,1,0.0,White,Not rated,0
417,Magical Momos,Faridabad,Sector 37,77.3104099,28.4806379,Chinese,350.0,No,No,No,1,0.0,White,Not rated,0
418,Sam's Bake Shop,Faridabad,Sector 37,77.3103201,28.4808985,"Bakery, Fast Food",200.0,No,No,No,1,0.0,White,Not rated,1
419,Shri Bikaner Misthan Bhandar,Faridabad,Sector 37,77.3092797,28.4773757,"Mithai, Street Food",100.0,No,No,No,1,0.0,White,Not rated,0
420,Tasty Dhaba Family Restaurant,Faridabad,Sector 37,77.3060567,28.474531,"North Indian, Mughlai",400.0,No,No,No,1,0.0,White,Not rated,0
421,U & I,Faridabad,Sector 37,77.3056065,28.4807304,"North Indian, Chinese",500.0,No,No,No,2,0.0,White,Not rated,0
422,Cravings,Faridabad,Sector 41,77.28759091,28.46626355,"North Indian, Mughlai, Chinese",500.0,No,No,No,2,3.0,Orange,Average,4
423,Evergreen Tandoori Night,Faridabad,Sector 41,77.28919957,28.46191014,North Indian,550.0,No,No,No,2,0.0,White,Not rated,3
426,Chicken Inn Family Meat Shop,Faridabad,Sector 42,77.30027778,28.46118611,"Raw Meats, Fast Food",300.0,No,No,No,1,0.0,White,Not rated,1
428,Domino's Pizza,Faridabad,Sector 43,77.3001795,28.4609554,"Pizza, Fast Food",700.0,No,No,No,2,2.9,Orange,Average,10
429,Green Chick Chop,Faridabad,Sector 43,77.2886873,28.460556,"Raw Meats, North Indian, Fast Food",350.0,No,No,No,1,3.1,Orange,Average,5
430,Punjabi Culture,Faridabad,Sector 43,77.2978395,28.4622059,"North Indian, Mughlai",500.0,No,No,No,2,2.9,Orange,Average,4
431,Three Olives,Faridabad,Sector 43,77.30083365,28.46227858,"Italian, Fast Food",550.0,No,No,No,2,2.9,Orange,Average,4
432,Aggarwal's Bikaner Mishthan Bhandar,Faridabad,Sector 43,77.2847783,28.46117,"Mithai, South Indian, Chinese, Street Food",100.0,No,No,No,1,0.0,White,Not rated,0
434,Chatny Delight,Faridabad,Sector 43,77.2988233,28.4621065,Fast Food,100.0,No,No,No,1,0.0,White,Not rated,1
435,Harmann Restaurant,Faridabad,Sector 43,77.29056667,28.46681111,"North Indian, South Indian, Chinese",350.0,No,No,No,1,0.0,White,Not rated,3
436,Kulcha King,Faridabad,Sector 43,77.2845595,28.4601453,North Indian,100.0,No,No,No,1,0.0,White,Not rated,2
437,Royal Bakers,Faridabad,Sector 43,77.2999207,28.4614258,Bakery,200.0,No,No,No,1,0.0,White,Not rated,0
438,Touch of Spice,Faridabad,Sector 43,77.29738433,28.46210674,"Chinese, North Indian",600.0,No,No,No,2,0.0,White,Not rated,0
439,Hunger Cure,Faridabad,Sector 46,77.2983871,28.4376977,"Fast Food, Chinese",700.0,No,No,No,2,3.2,Orange,Average,47
440,Sanjha Chulha,Faridabad,Sector 46,77.2983353,28.4375489,"North Indian, Mughlai",700.0,No,Yes,No,2,2.5,Orange,Average,79
441,Queens Cakes,Faridabad,Sector 46,77.2984265,28.4370903,Bakery,200.0,No,No,No,1,3.5,Yellow,Good,29
442,Sri Meenakshi South Indian Food,Faridabad,Sector 46,77.2990075,28.4375707,South Indian,250.0,No,No,No,1,0.0,White,Not rated,1
443,Sardar A Pure Meat Shop,Faridabad,Sector 49,77.2670505,28.3959758,"Raw Meats, Fast Food, North Indian",150.0,No,No,No,1,0.0,White,Not rated,0
444,Invitation Restaurant,Faridabad,Sector 7,77.3239171,28.363238,"North Indian, South Indian, Chinese, Fast Food",500.0,No,Yes,No,2,2.7,Orange,Average,17
445,Kaushik Bakery,Faridabad,Sector 7,77.3241415,28.3632142,Bakery,200.0,No,No,No,1,3.0,Orange,Average,9
446,Rama Vaishnav Bhojnalaya,Faridabad,Sector 7,77.3259973,28.3638989,"North Indian, Chinese",250.0,No,No,No,1,3.0,Orange,Average,7
447,Shiv Saras Vyanjan,Faridabad,Sector 7,77.3282696,28.3691677,Mithai,100.0,No,No,No,1,2.9,Orange,Average,5
448,Shree Bikaner Misthan Bhandar,Faridabad,Sector 7,77.32705828,28.36942587,"Mithai, Bakery, Street Food, Chinese, South Indian",300.0,No,No,No,1,3.0,Orange,Average,8
449,Shree Bikaner Misthan Bhandar,Faridabad,Sector 7,77.3264093,28.3633036,"Mithai, Street Food",150.0,No,No,No,1,3.1,Orange,Average,15
450,Standard Family Restaurant,Faridabad,Sector 7,77.3260374,28.3633487,North Indian,450.0,No,No,No,1,2.9,Orange,Average,16
451,The Hunger End,Faridabad,Sector 7,77.3285388,28.3686544,"North Indian, Chinese",500.0,No,No,No,2,3.0,Orange,Average,4
452,Pizza Express,Faridabad,Sector 7,77.3262953,28.3630576,"Pizza, Fast Food",400.0,No,No,No,1,0.0,White,Not rated,1
453,Anupam Sweets & Restaurant,Faridabad,Sector 86,77.3396661,28.4087438,"North Indian, Chinese, Fast Food",450.0,No,Yes,No,1,3.0,Orange,Average,10
454,Caramel,Faridabad,Sector 86,77.33637929,28.40775168,"North Indian, Chinese, Continental",600.0,No,No,No,2,2.9,Orange,Average,9
455,Chaska Restaurant,Faridabad,Sector 86,77.3364513,28.4086778,"North Indian, Chinese",650.0,No,No,No,2,3.2,Orange,Average,24
456,Club Pizzeria,Faridabad,Sector 86,77.3397558,28.4085728,Pizza,550.0,No,Yes,No,2,3.4,Orange,Average,19
457,Gupha,Faridabad,Sector 86,77.34231301,28.41226833,"North Indian, Chinese",500.0,No,No,No,2,2.9,Orange,Average,8
458,Indian Gourmet,Faridabad,Sector 86,77.3409272,28.4081056,"North Indian, Chinese, Raw Meats",450.0,No,No,No,1,3.0,Orange,Average,8
459,Tandoori Zaaika's,Faridabad,Sector 86,77.336292,28.4102194,"North Indian, Chinese",500.0,No,Yes,No,2,3.2,Orange,Average,39
460,TCD Cake & Bake,Faridabad,Sector 86,77.3372048,28.4098256,"Bakery, Fast Food",300.0,No,No,No,1,3.1,Orange,Average,10
461,The Grill Darbar,Faridabad,Sector 86,77.33666,28.4080574,"North Indian, Mughlai, Chinese",500.0,No,No,No,2,3.3,Orange,Average,17
462,Urban Cuisine,Faridabad,Sector 86,77.3409826,28.4080719,"North Indian, Chinese, Mughlai",500.0,No,Yes,No,2,3.4,Orange,Average,37
463,Mister Mughal,Faridabad,Sector 86,77.3423218,28.4067402,Mughlai,600.0,No,Yes,No,2,3.5,Yellow,Good,33
464,The Hub,Faridabad,Sector 9,77.3315619,28.3765371,"Bakery, Fast Food",200.0,No,No,No,1,3.1,Orange,Average,9
466,Green Chilly Chinese Food,Faridabad,Sector 9,77.3328117,28.3764571,Chinese,300.0,No,No,No,1,0.0,White,Not rated,2
467,Mom's Kitchen,Faridabad,Sector 9,77.3299747,28.3763294,North Indian,450.0,No,No,No,1,0.0,White,Not rated,1
469,Twin Brothers,Faridabad,"SRS Mall, Sector 12, Faridabad",77.3167822,28.3865773,Fast Food,150.0,No,No,No,1,0.0,White,Not rated,0
470,Aggarwal Sweets Centre,Faridabad,Suraj Kund,77.2899232,28.4997177,"Mithai, Street Food, Chinese",100.0,No,No,No,1,2.9,Orange,Average,4
471,Bawarchi,Faridabad,Suraj Kund,77.29385857,28.49820594,"North Indian, Chinese, Mughlai",550.0,No,No,No,2,3.0,Orange,Average,14
472,D ART of Flavour,Faridabad,Suraj Kund,77.2937593,28.4982147,"North Indian, Chinese",500.0,No,No,No,2,2.8,Orange,Average,13
473,Italia Cafe by Aura,Faridabad,Suraj Kund,77.2903929,28.5000937,"Fast Food, Beverages",400.0,No,No,No,1,2.8,Orange,Average,5
474,Pizza Street,Faridabad,Suraj Kund,77.2903,28.50064,"Fast Food, Pizza",550.0,No,Yes,No,2,2.6,Orange,Average,12
475,Rock Cafe,Faridabad,Suraj Kund,77.2869976,28.4727738,"North Indian, Chinese, South Indian",550.0,No,No,No,2,3.0,Orange,Average,8
476,Sardaar Ji Chaap & Rolls,Faridabad,Suraj Kund,77.2896526,28.49916279,North Indian,300.0,No,No,No,1,3.1,Orange,Average,7
477,Spice Wok,Faridabad,Suraj Kund,77.2930411,28.4992231,"North Indian, Chinese",600.0,No,No,No,2,3.1,Orange,Average,18
478,Vrindavan Sweets & Restaurant,Faridabad,Suraj Kund,77.2902208,28.5002348,"North Indian, Chinese, South Indian, Fast Food",350.0,No,No,No,1,3.0,Orange,Average,22
480,Bikaner Sweets & Bakers,Faridabad,Suraj Kund,77.2940734,28.4938048,"Mithai, Street Food",100.0,No,No,No,1,0.0,White,Not rated,0
481,Burger Xpress,Faridabad,Suraj Kund,77.2921516,28.4989698,"Fast Food, Chinese, Burger",300.0,No,No,No,1,0.0,White,Not rated,0
482,Da Pizza Zone,Faridabad,Suraj Kund,77.2918806,28.4990357,Italian,500.0,No,No,No,2,0.0,White,Not rated,0
483,Finger Licious,Faridabad,Suraj Kund,77.2846781,28.4609284,Fast Food,300.0,No,No,No,1,0.0,White,Not rated,0
484,Med E Taste,Faridabad,Suraj Kund,77.2847168,28.4609545,Mediterranean,500.0,No,No,No,2,0.0,White,Not rated,3
485,Punjabii Tandoor,Faridabad,Suraj Kund,77.2997286,28.462227,"North Indian, Mughlai",500.0,No,No,No,2,0.0,White,Not rated,3
486,Shankar Sweets,Faridabad,Suraj Kund,77.29654722,28.49710833,"Mithai, Street Food",100.0,No,No,No,1,0.0,White,Not rated,0
487,Tasty Bites,Faridabad,Suraj Kund,77.2899124,28.4997138,"South Indian, Chinese, North Indian",200.0,No,No,No,1,0.0,White,Not rated,2
488,The Street- Curries & Grills,Faridabad,Suraj Kund,77.290565,28.489496,"North Indian, Mughlai, Continental",600.0,No,No,No,2,0.0,White,Not rated,1
489,Bakers Delight - The Atrium,Faridabad,"The Atrium, Suraj Kund",77.283011,28.489796,"Bakery, Desserts",700.0,No,No,No,2,3.0,Orange,Average,10
490,On The Rocks - The  Atrium,Faridabad,"The Atrium, Suraj Kund",77.283011,28.489796,Finger Food,1400.0,Yes,No,No,3,3.1,Orange,Average,18
491,World Cafe - Vibe by The LaLiT Traveller,Faridabad,"Vibe by The LaLit Traveller, Mathura Road",77.3060732,28.4729124,"North Indian, Continental, Chinese",1900.0,Yes,No,No,3,3.3,Orange,Average,56
492,Chaudhary Ke Mashhoor Paranthe,Ghaziabad,Indirapuram,77.37444167,28.63601389,North Indian,150.0,No,No,No,1,2.8,Orange,Average,14
493,Thakur Bakers,Ghaziabad,Indirapuram,77.37419167,28.63602222,Bakery,150.0,No,No,No,1,3.0,Orange,Average,6
494,FoodByMom,Ghaziabad,Indirapuram,77.369326,28.635083,North Indian,300.0,No,Yes,No,1,3.6,Yellow,Good,161
495,Mr. Brown,Ghaziabad,Indirapuram,77.378751,28.637449,"Fast Food, Cafe, Desserts, Bakery",500.0,No,Yes,No,2,3.9,Yellow,Good,52
496,Mitalis Kitchen,Ghaziabad,Indirapuram,77.31548297,28.63823809,North Indian,350.0,No,No,No,1,0.0,White,Not rated,1
497,The Big Scoop,Ghaziabad,Kaushambi,77.31069862,28.6411332,Ice Cream,250.0,No,No,No,1,0.0,White,Not rated,0
498,9 Mars Lounge,Ghaziabad,"Shipra Mall, Indirapuram",77.36989718,28.63423199,"North Indian, Chinese",2500.0,Yes,No,No,4,2.5,Orange,Average,184
499,Barista,Ghaziabad,"Shipra Mall, Indirapuram",77.37024722,28.63404167,Cafe,650.0,No,Yes,No,2,3.4,Orange,Average,33
500,Baskin Robbins,Ghaziabad,"Shipra Mall, Indirapuram",77.3704,28.63392778,Ice Cream,300.0,No,Yes,No,1,3.3,Orange,Average,27
501,Burger King,Ghaziabad,"Shipra Mall, Indirapuram",77.36986466,28.63388299,"Burger, Fast Food",500.0,No,Yes,No,2,3.4,Orange,Average,327
502,Cafe Coffee Day,Ghaziabad,"Shipra Mall, Indirapuram",77.37020833,28.63404722,Cafe,450.0,No,No,No,1,3.2,Orange,Average,63
503,Chinese X'Press,Ghaziabad,"Shipra Mall, Indirapuram",77.36986466,28.63388299,Chinese,600.0,No,No,No,2,2.9,Orange,Average,16
504,Cinch,Ghaziabad,"Shipra Mall, Indirapuram",77.36972552,28.63412753,"North Indian, Chinese, Continental",1500.0,Yes,No,No,3,2.6,Orange,Average,92
505,Costa Coffee,Ghaziabad,"Shipra Mall, Indirapuram",77.370576,28.634123,Cafe,600.0,No,No,No,2,3.3,Orange,Average,60
506,Domino's Pizza,Ghaziabad,"Shipra Mall, Indirapuram",77.36981537,28.63407809,"Pizza, Fast Food",700.0,No,No,No,2,3.2,Orange,Average,17
507,Dosa X'press,Ghaziabad,"Shipra Mall, Indirapuram",77.36972786,28.63378764,South Indian,500.0,No,No,No,2,3.0,Orange,Average,6
508,Kebab Xpress,Ghaziabad,"Shipra Mall, Indirapuram",77.36959241,28.63383826,"North Indian, Mughlai",600.0,No,No,No,2,2.7,Orange,Average,14
509,Let's Noodle,Ghaziabad,"Shipra Mall, Indirapuram",77.36971814,28.63421758,Chinese,700.0,No,Yes,No,2,2.6,Orange,Average,181
510,McDonald's,Ghaziabad,"Shipra Mall, Indirapuram",77.37036925,28.63401924,"Fast Food, Burger",500.0,No,Yes,No,2,3.3,Orange,Average,150
511,Mx Corn,Ghaziabad,"Shipra Mall, Indirapuram",77.36987706,28.63431586,Fast Food,100.0,No,No,No,1,3.1,Orange,Average,7
512,Dunkin' Donuts,Ghaziabad,"Shipra Mall, Indirapuram",77.37019444,28.634175,"Burger, Desserts, Fast Food",600.0,No,Yes,No,2,3.6,Yellow,Good,252
513,Haldiram's,Ghaziabad,"Shipra Mall, Indirapuram",77.37023715,28.6339389,"North Indian, South Indian, Chinese, Street Food, Fast Food, Mithai, Desserts",600.0,No,No,No,2,3.6,Yellow,Good,187
514,Pind Balluchi,Ghaziabad,"Shipra Mall, Indirapuram",77.37016473,28.63397039,"North Indian, Mughlai",1000.0,Yes,Yes,No,3,1.8,Red,Poor,322
515,Maini Restaurant,Ghaziabad,Surya Nagar,77.3252184,28.6698582,"North Indian, Fast Food",400.0,No,No,No,1,3.3,Orange,Average,114
516,The Dosa King,Ghaziabad,Surya Nagar,77.3231543,28.6644658,"South Indian, North Indian, Chinese",550.0,No,Yes,No,2,3.2,Orange,Average,80
517,Baba Au Rhum,Goa,Anjuna,73.75574991,15.57668259,"Italian, French, Cafe",800.0,No,No,No,3,4.5,Dark Green,Excellent,280
518,Burger Factory,Goa,Anjuna,73.74360556,15.58565833,Fast Food,1100.0,No,No,No,4,4.8,Dark Green,Excellent,415
519,Club Cubana,Goa,Anjuna,73.76688333,15.57482778,Finger Food,2000.0,No,No,No,4,4.4,Green,Very Good,646
520,Curlies,Goa,"Anjuna Beach, Anjuna",73.74229444,15.5696,"Continental, North Indian, Italian, Seafood, Goan",1500.0,No,No,No,4,3.5,Yellow,Good,1681
522,St. Anthony's,Goa,Baga,73.74909167,15.56155,"North Indian, Chinese, Continental, Goan, Seafood",1100.0,No,No,No,4,3.8,Yellow,Good,911
523,Britto's Bar & Restaurant,Goa,Baga,73.74947806,15.56129549,"North Indian, Continental, Chinese, Seafood",1400.0,No,No,No,4,4.3,Green,Very Good,2191
524,Fat Fish,Goa,Baga,73.76363333,15.55656111,"North Indian, Continental, Goan",1000.0,No,No,No,4,4.2,Green,Very Good,856
525,Martin's Corner,Goa,Betalbatim,73.91433611,15.30389722,"Goan, Seafood, Chinese, North Indian",1600.0,No,No,No,4,4.4,Green,Very Good,1115
526,Infantaria,Goa,Calangute,73.76043056,15.54659444,"Italian, Continental, Goan",800.0,No,No,No,3,3.7,Yellow,Good,1221
527,Souza Lobo,Goa,"Calangute Beach, Calangute",73.75573611,15.54441944,"North Indian, Continental, Goan",1300.0,No,No,No,4,4.3,Green,Very Good,918
528,Fisherman's Cove,Goa,Candolim,73.76817222,15.51683333,"Goan, North Indian, Chinese",700.0,No,No,No,3,3.8,Yellow,Good,601
529,Calamari,Goa,Candolim,73.7666682,15.5062047,"Goan, Seafood, Chinese",800.0,No,No,No,3,4.2,Green,Very Good,414
530,The Fisherman's Wharf,Goa,Cavelossim,73.95088889,15.15794444,"Continental, Goan, Seafood, North Indian",1100.0,No,No,No,4,4.6,Dark Green,Excellent,555
531,LPK Waterfront,Goa,Nerul,73.7834595,15.51315,Finger Food,1500.0,No,No,No,4,3.7,Yellow,Good,516
532,Ritz Classic,Goa,Panaji,73.82691111,15.49860278,"Goan, Seafood, North Indian",600.0,No,No,No,3,4.5,Dark Green,Excellent,840
533,The Black Sheep Bistro,Goa,Panaji,73.825364,15.496162,"Seafood, Continental, European, German",1500.0,No,No,No,4,4.7,Dark Green,Excellent,681
534,Cafe Al Fresco by Cantina Bodega,Goa,Panaji,73.827423,15.49395,Cafe,800.0,No,No,No,3,4.3,Green,Very Good,265
537,K Lab,Gurgaon," ILD Trade Centre Mall, Sohna Road",77.0393103,28.4248315,"Cafe, Beverages",350.0,No,No,No,1,3.4,Orange,Average,16
538,Pind Balluchi,Gurgaon," ILD Trade Centre Mall, Sohna Road",77.0392204,28.4249125,"North Indian, Mughlai",800.0,Yes,Yes,No,2,2.7,Orange,Average,80
539,Punjab Grill,Gurgaon,"Ambience Mall, Gurgaon",77.0971178,28.5030769,"North Indian, Mughlai",2000.0,Yes,Yes,No,4,4.3,Green,Very Good,1887
540,Zambar,Gurgaon,"Ambience Mall, Gurgaon",77.0971853,28.5026128,"South Indian, Seafood, Kerala",1400.0,Yes,Yes,No,3,4.0,Green,Very Good,802
541,Cakes & More,Gurgaon,"Ansal Plaza Mall, Palam Vihar",77.0420091,28.5114162,Bakery,250.0,No,No,No,1,3.0,Orange,Average,4
542,Kwality Wall's Swirl's,Gurgaon,"Ansal Plaza Mall, Palam Vihar",77.0419641,28.5114567,Ice Cream,200.0,No,No,No,1,3.0,Orange,Average,5
543,Yo! Dimsum,Gurgaon,"Ansal Plaza Mall, Palam Vihar",77.0420091,28.5115059,Chinese,200.0,No,No,No,1,3.0,Orange,Average,10
544,Mx Corn,Gurgaon,"Ansal Plaza Mall, Palam Vihar",77.0418253,28.5114067,Fast Food,100.0,No,No,No,1,0.0,White,Not rated,2
545,Red,Gurgaon,Ardee City,77.08785083,28.44070881,"Japanese, Thai, Chinese",1200.0,No,Yes,No,3,3.0,Orange,Average,57
546,Rocketchefs,Gurgaon,Ardee City,77.0855313,28.4423933,"Pizza, Desserts",500.0,No,Yes,No,2,3.1,Orange,Average,4
547,The Fresh Chicken Store,Gurgaon,Ardee City,77.0757671,28.4418793,"Raw Meats, Fast Food",350.0,No,No,No,1,2.9,Orange,Average,4
548,Achoos Food Corner,Gurgaon,Ardee City,77.0787681,28.4347278,"South Indian, Chinese, Mughlai",450.0,No,No,No,1,0.0,White,Not rated,0
549,Aha Bites,Gurgaon,Ardee City,77.0898569,28.4308575,"Fast Food, North Indian",300.0,No,No,No,1,0.0,White,Not rated,0
550,Ancient Spice,Gurgaon,Ardee City,77.0780576,28.432548,"North Indian, Chinese",300.0,No,No,No,1,0.0,White,Not rated,2
551,Chimney - The Takeaway,Gurgaon,Ardee City,77.078405,28.440599,"North Indian, South Indian, Chinese",500.0,No,No,No,2,0.0,White,Not rated,1
552,Costa Coffee,Gurgaon,Ardee City,77.0735119,28.4319102,Cafe,600.0,No,No,No,2,0.0,White,Not rated,2
553,Good to Go,Gurgaon,Ardee City,77.0738947,28.436274,Raw Meats,500.0,No,Yes,No,2,0.0,White,Not rated,1
554,Gopi Sweets & Caters,Gurgaon,Ardee City,77.0787448,28.4346864,"Mithai, North Indian",100.0,No,No,No,1,0.0,White,Not rated,0
556,Lavi Foji Dhaba,Gurgaon,Ardee City,77.081492,28.4406523,North Indian,200.0,No,No,No,1,0.0,White,Not rated,0
557,Narayan Fast Food Home,Gurgaon,Ardee City,77.0762723,28.4353217,"North Indian, Chinese",350.0,No,No,No,1,0.0,White,Not rated,0
558,OMG Kitchenz,Gurgaon,Ardee City,77.0728193,28.4370922,"South Indian, Street Food",300.0,No,No,No,1,0.0,White,Not rated,1
559,OMG Tiffinz,Gurgaon,Ardee City,77.0728605,28.4371161,"North Indian, Chinese",250.0,No,No,No,1,0.0,White,Not rated,0
560,Sardarji Chicken Point,Gurgaon,Ardee City,77.0754948,28.4394519,"North Indian, Chinese",500.0,No,No,No,2,0.0,White,Not rated,1
561,Solty Hotel,Gurgaon,Ardee City,77.0837565,28.430634,North Indian,200.0,No,No,No,1,0.0,White,Not rated,0
563,The Burger Chef,Gurgaon,Ardee City,77.0756612,28.4419493,Fast Food,350.0,No,No,No,1,0.0,White,Not rated,3
564,Club Tokyo - Best Western Skycity Hotel,Gurgaon,"Best Western Skycity Hotel, Sector 15, Gurgaon",77.0347151,28.4580879,Japanese,1500.0,Yes,No,No,3,2.8,Orange,Average,13
565,Lattitude - Skycity Hotel,Gurgaon,"Best Western Skycity Hotel, Sector 15, Gurgaon",77.0349627,28.4582412,"North Indian, Chinese, Continental",2500.0,Yes,No,No,4,2.9,Orange,Average,15
566,Bisque Bakery,Gurgaon,"Central Arcade, DLF Phase 2, Gurgaon",77.0857204,28.4807592,"Bakery, Fast Food",500.0,No,Yes,No,2,3.9,Yellow,Good,415
567,Behrouz Biryani,Gurgaon,"Central Plaza Mall, Golf Course Road",77.1006623,28.4434069,Biryani,600.0,No,Yes,No,2,3.4,Orange,Average,36
568,Domino's Pizza,Gurgaon,"Central Plaza Mall, Golf Course Road",77.1010066,28.4428671,"Pizza, Fast Food",700.0,No,No,No,2,3.4,Orange,Average,104
569,Giani,Gurgaon,"Central Plaza Mall, Golf Course Road",77.1009167,28.4430378,"Ice Cream, Desserts",400.0,No,Yes,No,1,3.4,Orange,Average,70
570,PizzaVito,Gurgaon,"Central Plaza Mall, Golf Course Road",77.1007369,28.4431102,"Italian, Pizza, Lebanese",900.0,Yes,Yes,No,2,3.3,Orange,Average,218
571,Shawarma House,Gurgaon,"Central Plaza Mall, Golf Course Road",77.1010965,28.4426964,Lebanese,500.0,No,Yes,No,2,3.4,Orange,Average,225
572,Subway,Gurgaon,"Central Plaza Mall, Golf Course Road",77.1009167,28.4430378,"American, Fast Food, Salad, Healthy Food",500.0,No,Yes,No,2,2.5,Orange,Average,150
573,Asian Bistro,Gurgaon,"Central Plaza Mall, Golf Course Road",77.1008268,28.4429395,"Chinese, Thai, North Indian, Japanese",1600.0,Yes,Yes,No,3,3.8,Yellow,Good,184
574,BBQ Factory,Gurgaon,"Central Plaza Mall, Golf Course Road",77.1009883,28.442717,North Indian,1400.0,Yes,Yes,No,3,3.9,Yellow,Good,146
575,Faaso's,Gurgaon,"Central Plaza Mall, Golf Course Road",77.1005772,28.443403,"North Indian, Fast Food",600.0,No,Yes,No,2,3.6,Yellow,Good,33
576,Chaayos,Gurgaon,"Central Plaza Mall, Golf Course Road",77.1007871,28.4431891,"Cafe, Tea",400.0,No,Yes,No,1,4.3,Green,Very Good,48
577,Mosaic - Country Inn & Suites,Gurgaon,"Country Inn & Suites by Carlson, Gurgaon",77.0676442,28.4619878,"North Indian, Asian, Continental",1500.0,Yes,No,No,3,3.8,Yellow,Good,91
578,60 ML - Country Inn & Suites by Carlson,Gurgaon,"Country Inn & Suites by Carlson, Sector 12",77.0376911,28.468336,Finger Food,1000.0,Yes,No,No,3,3.0,Orange,Average,7
579,Mosaic - Country Inn & Suites by Carlson,Gurgaon,"Country Inn & Suites by Carlson, Sector 12",77.037781,28.4684343,"Continental, North Indian, Chinese",1800.0,Yes,No,No,3,3.5,Yellow,Good,37
580,Big Shot Bar - Country Inn & Suites,Gurgaon,"Country Inn & Suites By Carlson, Udyog Vihar",77.0918351,28.5092246,"Chinese, Italian, North Indian",2200.0,Yes,No,No,4,3.5,Yellow,Good,32
581,Mosaic - Country Inn & Suites By Carlson,Gurgaon,"Country Inn & Suites, Sohna Road",77.0684986,28.3349418,"North Indian, Chinese, Italian, Continental",1300.0,Yes,No,No,3,3.4,Orange,Average,19
582,Downtown Kitchen & Bar - Courtyard by Marriott,Gurgaon,"Courtyard by Marriott, Sushant Lok",77.080367,28.460925,"Chinese, North Indian, Italian",2700.0,No,No,No,4,3.2,Orange,Average,6
583,Courtyard Grill - Courtyard by Marriott,Gurgaon,"Courtyard by Marriott, Sushant Lok",77.080367,28.460925,"Chinese, North Indian, Italian",2500.0,No,No,No,4,0.0,White,Not rated,3
584,Di Ghent Boulangerie,Gurgaon,"Cross Point Mall, DLF Phase 4",77.0835375,28.46836827,"Cafe, Belgian",1700.0,No,No,No,3,3.9,Yellow,Good,231
585,Khyen Chyen,Gurgaon,"Cross Point Mall, DLF Phase 4",77.0832475,28.4683741,Kashmiri,800.0,Yes,Yes,No,2,3.7,Yellow,Good,364
586,The Pint Room,Gurgaon,"Cross Point Mall, DLF Phase 4",77.0830226,28.4683973,"Finger Food, Continental, Italian",1700.0,Yes,No,No,3,3.7,Yellow,Good,127
587,Tughlaq,Gurgaon,"Cross Point Mall, DLF Phase 4",77.08390966,28.46844136,"North Indian, Mughlai, Chinese, Seafood",1000.0,No,Yes,No,3,3.5,Yellow,Good,351
588,Big Wong XL,Gurgaon,"Cross Point Mall, DLF Phase 4",77.0834723,28.4681716,"Chinese, Thai, Sushi",1500.0,Yes,Yes,No,3,4.0,Green,Very Good,162
589,Bunker,Gurgaon,"Cross Point Mall, DLF Phase 4",77.0831126,28.4682267,"Continental, North Indian, Chinese, Italian",1300.0,Yes,No,No,3,4.2,Green,Very Good,248
590,Culture Cafe,Gurgaon,"Cross Point Mall, DLF Phase 4",77.0837421,28.4681975,"Mediterranean, Continental",1500.0,Yes,Yes,No,3,4.2,Green,Very Good,144
591,Nowhere Terrace Brewpub Cafe,Gurgaon,"Cross Point Mall, DLF Phase 4",77.083048,28.468314,"Continental, European, Asian, North Indian, Chinese, Italian",1600.0,Yes,No,No,3,4.1,Green,Very Good,214
592,Cafe G - Crowne Plaza,Gurgaon,"Crowne Plaza, Sector 29",77.0600891,28.4684326,"North Indian, Continental, Chinese",3500.0,Yes,No,No,4,3.9,Yellow,Good,181
593,Wildfire - Crowne Plaza,Gurgaon,"Crowne Plaza, Sector 29",77.0599093,28.4684152,South American,5000.0,Yes,No,No,4,3.7,Yellow,Good,131
594,Isabella,Gurgaon,"Cyber Greens, DLF Cyber City",77.0928243,28.4937229,"North Indian, Mughlai, Chinese",700.0,No,Yes,No,2,2.8,Orange,Average,191
595,Fatburger,Gurgaon,"Cyber Hub, DLF Cyber City",77.0882416,28.4947571,"American, Mexican",1000.0,Yes,Yes,No,3,3.3,Orange,Average,793
596,Burma Burma,Gurgaon,"Cyber Hub, DLF Cyber City",77.0887329,28.4946295,"Asian, Burmese",1500.0,Yes,No,No,3,4.6,Dark Green,Excellent,563
597,Pier 38,Gurgaon,"Cyber Hub, DLF Cyber City",77.0886429,28.4950691,"Persian, Arabian, Lebanese, North Indian",1200.0,No,No,No,3,4.6,Dark Green,Excellent,177
598,Yum Yum Cha,Gurgaon,"Cyber Hub, DLF Cyber City",77.0885987,28.4950762,"Chinese, Japanese, Sushi",1800.0,No,No,No,3,4.5,Dark Green,Excellent,407
599,Amici Cafe,Gurgaon,"Cyber Hub, DLF Cyber City",77.0889781,28.4955391,"Cafe, Italian, Pizza",1200.0,Yes,Yes,No,3,3.7,Yellow,Good,647
600,Au Bon Pain,Gurgaon,"Cyber Hub, DLF Cyber City",77.088508,28.494832,"Cafe, Bakery",600.0,No,Yes,No,2,3.7,Yellow,Good,503
601,California Pizza Kitchen,Gurgaon,"Cyber Hub, DLF Cyber City",77.0886879,28.4952975,"Pizza, Italian",2500.0,Yes,Yes,No,4,3.7,Yellow,Good,980
602,Chai Point,Gurgaon,"Cyber Hub, DLF Cyber City",77.0888677,28.4952251,"Tea, Fast Food",200.0,No,Yes,No,1,3.7,Yellow,Good,544
603,Cherry Comet,Gurgaon,"Cyber Hub, DLF Cyber City",77.0888677,28.4953148,"Ice Cream, Desserts",400.0,No,Yes,No,1,3.6,Yellow,Good,455
604,Circus,Gurgaon,"Cyber Hub, DLF Cyber City",77.0888677,28.495763,"North Indian, Chinese, Italian",1250.0,Yes,No,No,3,3.9,Yellow,Good,230
605,Dunkin' Donuts,Gurgaon,"Cyber Hub, DLF Cyber City",77.0887329,28.4951674,"Burger, Desserts, Fast Food",600.0,No,Yes,No,2,3.8,Yellow,Good,701
606,Holy Smoke,Gurgaon,"Cyber Hub, DLF Cyber City",77.0883732,28.4947742,"Steak, American",1800.0,Yes,No,No,3,3.6,Yellow,Good,313
607,Italiano,Gurgaon,"Cyber Hub, DLF Cyber City",77.088598,28.4951096,Italian,1500.0,Yes,No,No,3,3.6,Yellow,Good,625
608,Krispy Kreme,Gurgaon,"Cyber Hub, DLF Cyber City",77.0886879,28.4952079,"Desserts, Beverages",350.0,No,Yes,No,1,3.9,Yellow,Good,425
609,Not Just Paranthas,Gurgaon,"Cyber Hub, DLF Cyber City",77.088598,28.4951096,North Indian,1100.0,No,No,No,3,3.6,Yellow,Good,734
610,Oh! Calcutta,Gurgaon,"Cyber Hub, DLF Cyber City",77.0886879,28.4952079,"Bengali, Seafood",1700.0,Yes,Yes,No,3,3.8,Yellow,Good,706
611,Olive Bistro,Gurgaon,"Cyber Hub, DLF Cyber City",77.0878786,28.4945922,"Mediterranean, Italian, European",2000.0,Yes,No,No,4,3.9,Yellow,Good,1490
612,Pita Pit,Gurgaon,"Cyber Hub, DLF Cyber City",77.0886429,28.4950691,"Healthy Food, Salad",600.0,No,Yes,No,2,3.9,Yellow,Good,870
613,Raasta,Gurgaon,"Cyber Hub, DLF Cyber City",77.0883732,28.4953121,"Continental, Italian",2000.0,Yes,Yes,No,4,3.8,Yellow,Good,1065
614,Red Mango,Gurgaon,"Cyber Hub, DLF Cyber City",77.0886879,28.4952079,"Cafe, Desserts",700.0,No,Yes,No,2,3.6,Yellow,Good,365
615,Rred Hot Asian Bistro,Gurgaon,"Cyber Hub, DLF Cyber City",77.0886879,28.4953871,"Chinese, Japanese, Thai, Asian",1400.0,Yes,Yes,No,3,3.5,Yellow,Good,384
616,Smaaash,Gurgaon,"Cyber Hub, DLF Cyber City",77.0889127,28.4950054,"North Indian, Thai, Continental",1400.0,No,No,No,3,3.9,Yellow,Good,622
617,Starbucks,Gurgaon,"Cyber Hub, DLF Cyber City",77.0891982,28.4956457,Cafe,700.0,No,No,No,2,3.9,Yellow,Good,560
618,Sutra Gastropub,Gurgaon,"Cyber Hub, DLF Cyber City",77.0883282,28.4948147,"Mediterranean, European, American, North Indian",2300.0,No,No,No,4,3.8,Yellow,Good,1046
619,Taco Bell,Gurgaon,"Cyber Hub, DLF Cyber City",77.0883113,28.4942639,"Mexican, Fast Food",550.0,No,Yes,No,2,3.8,Yellow,Good,176
620,The People & Co.,Gurgaon,"Cyber Hub, DLF Cyber City",77.0887778,28.4949476,"Continental, Italian",1700.0,Yes,No,No,3,3.7,Yellow,Good,173
621,Theobroma,Gurgaon,"Cyber Hub, DLF Cyber City",77.0886879,28.4947597,"Bakery, Cafe",600.0,No,Yes,No,2,3.8,Yellow,Good,227
622,Wendy's,Gurgaon,"Cyber Hub, DLF Cyber City",77.0875189,28.4949162,"Burger, Fast Food",400.0,No,Yes,No,1,3.9,Yellow,Good,296
623,The Wine Company,Gurgaon,"Cyber Hub, DLF Cyber City",77.0890476,28.4962285,"Italian, European",2000.0,Yes,No,No,4,2.4,Red,Poor,2412
624,Cafe Delhi Heights,Gurgaon,"Cyber Hub, DLF Cyber City",77.0886879,28.4952079,"Continental, American, Italian, Seafood, North Indian, Cafe",2000.0,No,No,No,4,4.0,Green,Very Good,1840
625,Cyber Hub Social,Gurgaon,"Cyber Hub, DLF Cyber City",77.088508,28.4939356,"Continental, American, Asian, North Indian",1500.0,Yes,Yes,No,3,4.3,Green,Very Good,716
626,Delifrance - The France Cafe Bakery,Gurgaon,"Cyber Hub, DLF Cyber City",77.08856095,28.49427139,"Cafe, Bakery, Desserts",800.0,Yes,Yes,No,2,4.0,Green,Very Good,199
627,Dhaba By Claridges,Gurgaon,"Cyber Hub, DLF Cyber City",77.0886879,28.4953871,North Indian,2000.0,Yes,Yes,No,4,4.0,Green,Very Good,1658
628,Farzi Cafe,Gurgaon,"Cyber Hub, DLF Cyber City",77.0886879,28.4952079,Modern Indian,2200.0,No,No,No,4,4.3,Green,Very Good,4385
629,Hard Rock Cafe,Gurgaon,"Cyber Hub, DLF Cyber City",77.088508,28.4949217,"Mediterranean, Mexican, North Indian, American",2500.0,Yes,No,No,4,4.1,Green,Very Good,1949
630,Instapizza,Gurgaon,"Cyber Hub, DLF Cyber City",77.0882383,28.494089,"Pizza, Fast Food",900.0,Yes,Yes,No,2,4.0,Green,Very Good,219
631,Made In Punjab,Gurgaon,"Cyber Hub, DLF Cyber City",77.088598,28.4951096,"North Indian, Mughlai",1500.0,Yes,No,No,3,4.0,Green,Very Good,1595
632,Nando's,Gurgaon,"Cyber Hub, DLF Cyber City",77.0888677,28.4954941,"Portuguese, African",1200.0,Yes,Yes,No,3,4.0,Green,Very Good,1730
633,Quaff,Gurgaon,"Cyber Hub, DLF Cyber City",77.0880651,28.4944224,"American, Italian, Chinese",1750.0,Yes,No,No,3,4.1,Green,Very Good,353
634,SodaBottleOpenerWala,Gurgaon,"Cyber Hub, DLF Cyber City",77.088508,28.494832,"Parsi, Iranian",1300.0,No,No,No,3,4.0,Green,Very Good,2843
635,The Grill Mill,Gurgaon,"Cyber Hub, DLF Cyber City",77.0884689,28.4940704,"North Indian, Continental, Asian",1500.0,Yes,No,No,3,4.0,Green,Very Good,209
636,Knight Rider,Gurgaon,DLF Cyber City,77.0933407,28.4877882,"North Indian, Continental",1200.0,Yes,No,No,3,3.1,Orange,Average,185
637,Chaayos,Gurgaon,DLF Cyber City,77.0921049,28.4897992,"Cafe, Tea",400.0,No,Yes,No,1,3.8,Yellow,Good,393
638,Nooba,Gurgaon,DLF Cyber City,77.0875639,28.4942482,Chinese,1500.0,No,No,No,3,3.8,Yellow,Good,333
639,Domino's Pizza,Gurgaon,DLF Cyber City,77.0890476,28.4945253,"Pizza, Fast Food",700.0,No,No,No,2,2.4,Red,Poor,125
640,Indigo Delicatessen,Gurgaon,DLF Cyber City,77.0884181,28.4940166,"European, Continental",1800.0,Yes,Yes,No,3,4.2,Green,Very Good,205
641,Escape Terrace Bar Kitchen,Gurgaon,"DLF Galleria, DLF Phase 4",77.0822133,28.4671541,Finger Food,1700.0,Yes,No,No,3,3.4,Orange,Average,294
642,Kwaliti,Gurgaon,"DLF Galleria, DLF Phase 4",77.0817637,28.4672902,"North Indian, Chinese, Fast Food",700.0,No,Yes,No,2,3.3,Orange,Average,129
643,Subway,Gurgaon,"DLF Galleria, DLF Phase 4",77.0814039,28.4676142,"American, Fast Food, Salad, Healthy Food",500.0,No,No,No,2,2.5,Orange,Average,125
644,Burger Point,Gurgaon,"DLF Galleria, DLF Phase 4",77.0823032,28.4672524,"Burger, Fast Food",300.0,No,Yes,No,1,3.8,Yellow,Good,74
645,Chaat Chowk,Gurgaon,"DLF Galleria, DLF Phase 4",77.0821234,28.4670558,Street Food,350.0,No,Yes,No,1,3.7,Yellow,Good,217
646,Chef Style,Gurgaon,"DLF Galleria, DLF Phase 4",77.0817637,28.4673798,"North Indian, Mughlai",700.0,Yes,Yes,No,2,3.8,Yellow,Good,239
647,Delhicacy,Gurgaon,"DLF Galleria, DLF Phase 4",77.0823032,28.4674317,"Street Food, Fast Food, North Indian",350.0,No,Yes,No,1,3.8,Yellow,Good,317
648,Dimsum & Co.,Gurgaon,"DLF Galleria, DLF Phase 4",77.0818119,28.4674661,Chinese,650.0,No,Yes,No,2,3.9,Yellow,Good,136
649,Instapizza,Gurgaon,"DLF Galleria, DLF Phase 4",77.0821234,28.467504,"Pizza, Fast Food",900.0,Yes,Yes,No,2,3.6,Yellow,Good,426
650,L'Opera,Gurgaon,"DLF Galleria, DLF Phase 4",77.0824381,28.4671309,"Bakery, Desserts, Fast Food",400.0,No,Yes,No,1,3.8,Yellow,Good,196
651,Lazeez Food,Gurgaon,"DLF Galleria, DLF Phase 4",77.081314,28.4670676,"Mughlai, North Indian",800.0,No,Yes,No,2,3.5,Yellow,Good,173
652,Le Marche Sugar & Spice Cafe,Gurgaon,"DLF Galleria, DLF Phase 4",77.0812241,28.4675073,"Cafe, Italian, Fast Food",700.0,No,No,No,2,3.5,Yellow,Good,52
653,The Breakfast Club,Gurgaon,"DLF Galleria, DLF Phase 4",77.0819435,28.4671282,"Continental, North Indian",500.0,No,Yes,No,2,3.5,Yellow,Good,189
654,Sugar & Spice - Le Marche,Gurgaon,"DLF Galleria, DLF Phase 4",77.0812241,28.4671487,"Bakery, Fast Food",800.0,No,No,No,2,2.4,Red,Poor,88
655,Crudo Juicery,Gurgaon,"DLF Galleria, DLF Phase 4",77.0819435,28.4674868,"Beverages, Salad",400.0,No,Yes,No,1,4.3,Green,Very Good,154
656,Fork with Stick,Gurgaon,"DLF Galleria, DLF Phase 4",77.0823032,28.4674317,Chinese,800.0,Yes,Yes,No,2,4.0,Green,Very Good,169
657,Uptown Fresh Beer Cafe,Gurgaon,"DLF Galleria, DLF Phase 4",77.0812241,28.4675073,"Finger Food, North Indian, Italian, European, Continental",2500.0,No,No,No,4,4.1,Green,Very Good,230
658,Barista,Gurgaon,"DLF Mega Mall, DLF Phase 1",77.09313545,28.47582155,Cafe,650.0,No,Yes,No,2,3.2,Orange,Average,18
659,Cafe Coffee Day,Gurgaon,"DLF Mega Mall, DLF Phase 1",77.09359512,28.47548941,Cafe,450.0,No,No,No,1,2.6,Orange,Average,27
660,Domino's Pizza,Gurgaon,"DLF Mega Mall, DLF Phase 1",77.09308315,28.47577587,"Pizza, Fast Food",700.0,No,No,No,2,2.8,Orange,Average,30
661,Italiano,Gurgaon,"DLF Mega Mall, DLF Phase 1",77.09323503,28.47573225,Italian,1500.0,No,No,No,3,3.0,Orange,Average,49
662,McDonald's,Gurgaon,"DLF Mega Mall, DLF Phase 1",77.09302582,28.47586163,"Fast Food, Burger",500.0,No,No,No,2,2.6,Orange,Average,30
663,Parantha Gurus,Gurgaon,"DLF Mega Mall, DLF Phase 1",77.09312875,28.47574493,North Indian,500.0,No,No,No,2,3.3,Orange,Average,27
664,Pizza Hut Delivery,Gurgaon,"DLF Mega Mall, DLF Phase 1",77.09333964,28.47626303,"Italian, Pizza, Fast Food",800.0,No,Yes,No,2,2.8,Orange,Average,29
665,Sibang Bakery,Gurgaon,"DLF Mega Mall, DLF Phase 1",77.09336612,28.47581065,"Bakery, Desserts, Fast Food",300.0,No,No,No,1,3.3,Orange,Average,13
666,Sonya Bakery Cafe,Gurgaon,"DLF Mega Mall, DLF Phase 1",77.093094,28.4759094,"Bakery, Desserts, Beverages",350.0,No,No,No,1,3.3,Orange,Average,20
667,Subway,Gurgaon,"DLF Mega Mall, DLF Phase 1",77.09308684,28.47568922,"American, Fast Food, Salad, Healthy Food",500.0,No,No,No,2,3.1,Orange,Average,46
668,Viva Hyderabad,Gurgaon,"DLF Mega Mall, DLF Phase 1",77.09311534,28.4756627,"Biryani, North Indian",600.0,No,Yes,No,2,2.5,Orange,Average,69
669,7 Barrel Brew Pub,Gurgaon,"DLF Mega Mall, DLF Phase 1",77.09335439,28.4761926,"North Indian, Continental, Chinese, Japanese, Italian, Thai",2000.0,Yes,Yes,No,4,3.9,Yellow,Good,490
670,Wai Yu Mun Ching,Gurgaon,"DLF Mega Mall, DLF Phase 1",77.09319044,28.47567184,"Chinese, Thai",800.0,No,Yes,No,2,3.5,Yellow,Good,112
671,Baskin Robbins,Gurgaon,"DLF Mega Mall, DLF Phase 1",77.0930171,28.4757632,Ice Cream,300.0,No,No,No,1,0.0,White,Not rated,3
672,KFC,Gurgaon,"DLF Mega Mall, DLF Phase 1",77.09351432,28.47650794,"American, Fast Food, Burger",500.0,No,Yes,No,2,2.2,Red,Poor,73
673,Burmese Kitchen Plus,Gurgaon,DLF Phase 1,77.1002873,28.4778552,"Burmese, Chinese, Thai",800.0,No,No,No,2,3.4,Orange,Average,65
674,Drinks Come True,Gurgaon,DLF Phase 1,77.0993882,28.4693415,"Beverages, Juices",150.0,No,No,No,1,3.1,Orange,Average,9
675,Eat All Nite,Gurgaon,DLF Phase 1,77.0935886,28.4726847,"North Indian, Chinese, Fast Food",800.0,No,Yes,No,2,3.2,Orange,Average,184
676,Frontier,Gurgaon,DLF Phase 1,77.0997478,28.4660588,Bakery,200.0,No,No,No,1,2.9,Orange,Average,4
677,GenY Cuisines,Gurgaon,DLF Phase 1,77.0922847,28.4733215,"Chinese, Mexican, Fast Food, Continental",250.0,No,No,No,1,3.0,Orange,Average,4
678,K Raga's,Gurgaon,DLF Phase 1,77.0923747,28.4733301,"North Indian, Mughlai",600.0,No,No,No,2,2.9,Orange,Average,5
679,Kangri,Gurgaon,DLF Phase 1,77.07935278,28.46121389,Kashmiri,750.0,No,No,No,2,3.4,Orange,Average,84
680,Makhmali Kebabs,Gurgaon,DLF Phase 1,77.0992983,28.4661053,Mughlai,550.0,No,No,No,2,3.2,Orange,Average,10
681,Masala Ville,Gurgaon,DLF Phase 1,77.0984902,28.471636,"North Indian, Mughlai",650.0,No,No,No,2,3.2,Orange,Average,15
682,Night Food Xprs,Gurgaon,DLF Phase 1,77.0993882,28.4693415,"Chinese, North Indian",650.0,No,No,No,2,3.1,Orange,Average,12
683,Roti Boti,Gurgaon,DLF Phase 1,77.092856,28.481301,"North Indian, Mughlai, Fast Food",700.0,No,No,No,2,2.9,Orange,Average,35
684,Sama Chicken Biryani,Gurgaon,DLF Phase 1,77.0948286,28.48187686,"Biryani, North Indian",200.0,No,No,No,1,2.9,Orange,Average,4
685,Subway,Gurgaon,DLF Phase 1,77.0997478,28.4657898,"American, Fast Food, Salad, Healthy Food",500.0,No,Yes,No,2,2.8,Orange,Average,54
686,The Rolling Pin Bakery,Gurgaon,DLF Phase 1,77.0983092,28.4679828,Bakery,500.0,No,No,No,2,3.1,Orange,Average,10
687,Weird Time Food,Gurgaon,DLF Phase 1,77.074163,28.477689,"Continental, Fast Food",600.0,No,Yes,No,2,3.1,Orange,Average,7
688,Twigly,Gurgaon,DLF Phase 1,77.0923421,28.4803156,"Continental, Italian, Pizza, Asian",500.0,No,Yes,No,2,4.6,Dark Green,Excellent,395
689,Asian Haus,Gurgaon,DLF Phase 1,77.1003687,28.4778418,"Chinese, Thai, Asian, Malaysian, Vietnamese, Japanese",1500.0,No,Yes,No,3,3.9,Yellow,Good,360
690,Beyond Breads,Gurgaon,DLF Phase 1,77.0922847,28.4733215,"Bakery, Desserts",200.0,No,Yes,No,1,3.8,Yellow,Good,326
691,Biryani By Kilo,Gurgaon,DLF Phase 1,77.1002873,28.4780345,"Biryani, Mughlai",700.0,No,Yes,No,2,3.9,Yellow,Good,403
692,Captain Grub,Gurgaon,DLF Phase 1,77.0997478,28.4660588,"American, Fast Food",1000.0,No,Yes,No,3,3.8,Yellow,Good,447
693,Pita Pit,Gurgaon,DLF Phase 1,77.1002873,28.4778552,"Healthy Food, Salad",600.0,No,Yes,No,2,3.5,Yellow,Good,56
694,Rawleaf,Gurgaon,DLF Phase 1,77.0957016,28.4694359,"Healthy Food, Salad",700.0,No,Yes,No,2,3.6,Yellow,Good,38
695,Sushi Haus,Gurgaon,DLF Phase 1,77.1003772,28.4778638,"Japanese, Sushi",1300.0,No,Yes,No,3,3.8,Yellow,Good,124
696,Eggzellent,Gurgaon,DLF Phase 1,77.10031841,28.47773187,Fast Food,250.0,No,Yes,No,1,0.0,White,Not rated,1
697,High On Tea,Gurgaon,DLF Phase 1,77.09313076,28.47580623,"Cafe, Tea",400.0,No,No,No,1,0.0,White,Not rated,3
698,Sona Bridge Hotel,Gurgaon,DLF Phase 1,77.1,28.47,Chinese,400.0,No,No,No,1,0.0,White,Not rated,2
699,Yo! Dimsum,Gurgaon,DLF Phase 1,77.0988037,28.4661923,"Fast Food, Chinese",200.0,No,No,No,1,0.0,White,Not rated,1
700,Angrezee Choupal,Gurgaon,DLF Phase 2,77.0860801,28.4827659,"North Indian, Chinese, Italian",500.0,No,Yes,No,2,3.8,Yellow,Good,299
701,Ashoka Snacks Corner,Gurgaon,DLF Phase 2,77.0860056,28.4828445,"Street Food, Chinese, North Indian",400.0,No,No,No,1,0.0,White,Not rated,0
703,Corp Kitchen,Gurgaon,DLF Phase 2,77.08986362,28.48211622,"North Indian, Chinese, Continental",600.0,No,No,No,2,0.0,White,Not rated,0
706,Pao King,Gurgaon,DLF Phase 2,77.0826144,28.4840963,Street Food,200.0,No,No,No,1,0.0,White,Not rated,0
707,Prabhat Fast Food Corner,Gurgaon,DLF Phase 2,77.0843715,28.490311,"Chinese, North Indian",200.0,No,No,No,1,0.0,White,Not rated,1
708,Shama Chicken Corner,Gurgaon,DLF Phase 2,77.0860801,28.4823177,Mughlai,300.0,No,No,No,1,0.0,White,Not rated,0
709,Unique Food Hut,Gurgaon,DLF Phase 2,77.082573,28.4904966,"Fast Food, North Indian, Beverages",600.0,No,No,No,2,0.0,White,Not rated,0
710,A 1 - Snacks and food corner,Gurgaon,DLF Phase 3,77.0942076,28.4899921,"North Indian, Chinese, Fast Food",350.0,No,Yes,No,1,2.5,Orange,Average,16
711,Anandum,Gurgaon,DLF Phase 3,77.1034343,28.486136,South Indian,400.0,No,No,No,1,3.2,Orange,Average,13
712,Apni Rasoi,Gurgaon,DLF Phase 3,77.0936335,28.4912907,"North Indian, Chinese",400.0,No,Yes,No,1,3.0,Orange,Average,160
713,Banke Bihari Bhojanalay,Gurgaon,DLF Phase 3,77.0935436,28.4934335,"Mithai, Street Food, North Indian",200.0,No,No,No,1,2.6,Orange,Average,36
714,Biryani 365,Gurgaon,DLF Phase 3,77.0957016,28.4948958,Mughlai,700.0,No,Yes,No,2,3.2,Orange,Average,17
715,Bro's Kitchenette,Gurgaon,DLF Phase 3,77.09530905,28.48826511,"Fast Food, Street Food, Beverages",350.0,No,No,No,1,3.3,Orange,Average,11
716,Cafe Coffee Day,Gurgaon,DLF Phase 3,77.09327124,28.49457813,Cafe,450.0,No,No,No,1,3.1,Orange,Average,9
717,Cafe Coffee Day,Gurgaon,DLF Phase 3,77.09158514,28.49034965,Cafe,450.0,No,No,No,1,3.2,Orange,Average,26
718,Cafe Du Rendezvous,Gurgaon,DLF Phase 3,77.0998522,28.4947415,"Cafe, Street Food",400.0,No,Yes,No,1,3.2,Orange,Average,21
719,Cake 24x7,Gurgaon,DLF Phase 3,77.1038389,28.4874747,Bakery,600.0,No,Yes,Yes,2,3.3,Orange,Average,25
720,Cake On Wheels,Gurgaon,DLF Phase 3,77.1047829,28.4874309,"Bakery, Desserts, Fast Food",200.0,No,Yes,No,1,2.8,Orange,Average,18
721,Cake Point,Gurgaon,DLF Phase 3,77.0939033,28.4902409,"Bakery, Desserts",600.0,No,Yes,Yes,2,2.9,Orange,Average,7
722,Cake Point,Gurgaon,DLF Phase 3,77.1038389,28.487654,"Bakery, Desserts",600.0,No,Yes,No,2,3.0,Orange,Average,35
723,Cakes Degree,Gurgaon,DLF Phase 3,77.094263,28.4923373,Bakery,300.0,No,Yes,No,1,3.4,Orange,Average,18
724,Chateau Garlic,Gurgaon,DLF Phase 3,77.10263249,28.48750366,"North Indian, Chinese",700.0,No,No,No,2,3.0,Orange,Average,14
725,Chennai Express,Gurgaon,DLF Phase 3,77.0939932,28.4931181,"South Indian, North Indian",300.0,No,No,No,1,3.2,Orange,Average,15
726,Crust N Cakes,Gurgaon,DLF Phase 3,77.0922847,28.4911611,Bakery,550.0,No,Yes,No,2,3.4,Orange,Average,18
727,Dabba Meat,Gurgaon,DLF Phase 3,77.0930322,28.4906544,North Indian,550.0,No,Yes,No,2,3.4,Orange,Average,29
728,Deepak Rasoi,Gurgaon,DLF Phase 3,77.0951644,28.4897671,"North Indian, Chinese",450.0,No,No,No,1,2.7,Orange,Average,22
729,Foodaucity - Bum Bum Bholey Ke Chole Bhature,Gurgaon,DLF Phase 3,77.0937234,28.4938093,Street Food,300.0,No,No,No,1,3.3,Orange,Average,14
731,Goli Vada Pav No. 1,Gurgaon,DLF Phase 3,77.0934537,28.4935145,Street Food,150.0,No,Yes,No,1,3.1,Orange,Average,83
732,Grandma's Kitchen,Gurgaon,DLF Phase 3,77.0936335,28.49147,"North Indian, South Indian",400.0,No,Yes,Yes,1,2.5,Orange,Average,20
733,Gurgaon Hights,Gurgaon,DLF Phase 3,77.093679,28.4917895,North Indian,400.0,No,Yes,No,1,2.5,Orange,Average,19
734,Idliss,Gurgaon,DLF Phase 3,77.0949823,28.4933028,"South Indian, North Indian, Chinese",400.0,No,Yes,No,1,3.4,Orange,Average,359
735,Indian Home Food,Gurgaon,DLF Phase 3,77.0934537,28.4911838,"North Indian, Chinese",600.0,No,Yes,No,2,2.6,Orange,Average,51
736,Jetha Lal Ka Dhabha,Gurgaon,DLF Phase 3,77.09503077,28.49332817,"North Indian, Chinese",400.0,No,Yes,No,1,3.1,Orange,Average,53
737,Kusum Rolls,Gurgaon,DLF Phase 3,77.092692,28.4907443,"Fast Food, Chinese",350.0,No,Yes,No,1,3.1,Orange,Average,71
738,Megha Vaishno Dhaba,Gurgaon,DLF Phase 3,77.0952332,28.4949836,North Indian,300.0,No,No,No,1,3.1,Orange,Average,33
739,Nikhil Food Point,Gurgaon,DLF Phase 3,77.0947642,28.4899703,"Chinese, North Indian",200.0,No,No,No,1,2.7,Orange,Average,19
740,Plan B,Gurgaon,DLF Phase 3,77.0962564,28.4846488,"North Indian, Chinese, Continental",1000.0,Yes,No,No,3,3.4,Orange,Average,132
741,Punjabi Zaika,Gurgaon,DLF Phase 3,77.1048728,28.4872602,"North Indian, Mughlai, Chinese",500.0,No,Yes,No,2,3.2,Orange,Average,74
742,Rasoi,Gurgaon,DLF Phase 3,77.1046906,28.487522,"North Indian, Chinese",500.0,No,No,No,2,3.0,Orange,Average,6
743,Roll's Royce,Gurgaon,DLF Phase 3,77.0938134,28.4934594,"Fast Food, North Indian",200.0,No,Yes,No,1,3.2,Orange,Average,42
744,Shree Bikaner Misthan Bhandar,Gurgaon,DLF Phase 3,77.0941281,28.4921002,"Street Food, Mithai",100.0,No,Yes,No,1,3.1,Orange,Average,29
745,Smokey Pan,Gurgaon,DLF Phase 3,77.0945327,28.4899428,"North Indian, Greek, Mughlai",300.0,No,No,No,1,3.2,Orange,Average,14
746,Surprise O Meal,Gurgaon,DLF Phase 3,77.0935436,28.4911924,"Continental, North Indian, Chinese",550.0,No,Yes,No,2,3.4,Orange,Average,35
747,Tandoor on The Way,Gurgaon,DLF Phase 3,77.0935436,28.4931646,Fast Food,300.0,No,Yes,No,1,3.2,Orange,Average,45
748,Tawa N Tandoor,Gurgaon,DLF Phase 3,77.0944877,28.4928519,"North Indian, Mughlai, Chinese",600.0,No,Yes,No,2,2.7,Orange,Average,51
749,The Paradise Biryani,Gurgaon,DLF Phase 3,77.0994974,28.4942093,"Biryani, North Indian",700.0,No,Yes,No,2,2.9,Orange,Average,22
750,The Royal,Gurgaon,DLF Phase 3,77.0934087,28.4936446,"Fast Food, Beverages",550.0,No,No,No,2,3.3,Orange,Average,15
751,Theka Desi Khaana,Gurgaon,DLF Phase 3,77.0948924,28.4932941,"North Indian, Chinese",350.0,No,Yes,No,1,3.0,Orange,Average,12
752,Tobasco Kitchen,Gurgaon,DLF Phase 3,77.0946676,28.4930484,"Fast Food, Pizza",500.0,No,Yes,No,2,3.2,Orange,Average,38
753,Tpot,Gurgaon,DLF Phase 3,77.0935436,28.4934335,"Fast Food, Beverages",400.0,No,No,No,1,3.2,Orange,Average,15
754,Uncle's Cafe,Gurgaon,DLF Phase 3,77.094263,28.4900962,"North Indian, Biryani, Fast Food, Chinese",350.0,No,No,No,1,2.7,Orange,Average,23
755,Welcome Cafeteria,Gurgaon,DLF Phase 3,77.0940363,28.4931115,"North Indian, Mughlai",600.0,No,Yes,No,2,3.3,Orange,Average,23
756,Yo Yo China Town,Gurgaon,DLF Phase 3,77.093805,28.49330872,"Chinese, North Indian, South Indian",400.0,No,Yes,No,1,2.8,Orange,Average,31
757,Caterspoint,Gurgaon,DLF Phase 3,77.1039737,28.4872636,"Mexican, American, Healthy Food",500.0,No,Yes,No,2,4.9,Dark Green,Excellent,223
758,Bake-a-boo,Gurgaon,DLF Phase 3,77.09623341,28.49025712,Bakery,200.0,No,Yes,No,1,3.7,Yellow,Good,55
759,Burger Hut,Gurgaon,DLF Phase 3,77.094263,28.4923373,"Burger, Fast Food, Chinese",300.0,No,Yes,No,1,3.6,Yellow,Good,319
760,China Gatherings,Gurgaon,DLF Phase 3,77.0939033,28.4902409,"Chinese, Thai",550.0,No,Yes,No,2,3.5,Yellow,Good,46
761,Crazy Bhukkhad,Gurgaon,DLF Phase 3,77.0924646,28.4896545,"North Indian, Chinese",400.0,No,Yes,No,1,3.9,Yellow,Good,54
762,Deez Biryani & Kebabs,Gurgaon,DLF Phase 3,77.103659,28.4878161,"Biryani, North Indian, Mughlai",800.0,No,Yes,No,2,3.7,Yellow,Good,371
763,Fomads,Gurgaon,DLF Phase 3,77.0943525,28.4922725,"North Indian, Chinese",300.0,No,No,No,1,3.6,Yellow,Good,26
764,Happy Beings,Gurgaon,DLF Phase 3,77.094627,28.490666,"North Indian, Mughlai, Chinese",500.0,No,Yes,No,2,3.5,Yellow,Good,66
765,InstaDozza,Gurgaon,DLF Phase 3,77.0935436,28.4934335,South Indian,250.0,No,Yes,No,1,3.5,Yellow,Good,28
766,Mom's Kitchen,Gurgaon,DLF Phase 3,77.0938134,28.4937283,North Indian,300.0,No,Yes,No,1,3.5,Yellow,Good,27
767,The Baker's Bar  ... Bakery & Cafe,Gurgaon,DLF Phase 3,77.09333796,28.49088743,"Italian, Lebanese, Fast Food, Bakery",400.0,No,No,No,1,3.6,Yellow,Good,29
768,Veg Ex,Gurgaon,DLF Phase 3,77.1036643,28.4879232,North Indian,500.0,No,Yes,No,2,3.8,Yellow,Good,45
769,Volt - By Plan B,Gurgaon,DLF Phase 3,77.1021761,28.4957118,"Mediterranean, Mughlai, Thai, North Indian, Chinese",1000.0,Yes,No,No,3,3.5,Yellow,Good,19
770,ZASTY,Gurgaon,DLF Phase 3,77.094031,28.492698,"Continental, North Indian, Asian",500.0,No,Yes,No,2,3.5,Yellow,Good,52
771,Aahar,Gurgaon,DLF Phase 3,77.0943256,28.492384,"North Indian, South Indian, Chinese",400.0,No,Yes,No,1,2.0,Red,Poor,60
772,Chicken Bytes,Gurgaon,DLF Phase 3,77.094263,28.4923373,"North Indian, Mughlai, Chinese",500.0,No,Yes,No,2,2.1,Red,Poor,34
773,Flying Cakes,Gurgaon,DLF Phase 3,77.0943529,28.4924355,Bakery,350.0,No,Yes,No,1,2.2,Red,Poor,136
774,Punjabi Tadka,Gurgaon,DLF Phase 3,77.0937234,28.4914786,North Indian,500.0,No,No,No,2,2.2,Red,Poor,43
775,Coldpress Company,Gurgaon,DLF Phase 3,77.09321138,28.489834,"Healthy Food, Juices, Salad, Italian, Continental",500.0,No,Yes,No,2,4.0,Green,Very Good,34
776,Crudo Juicery,Gurgaon,DLF Phase 3,77.1049154,28.4871499,"Beverages, Salad, Beverages",400.0,No,Yes,No,1,4.3,Green,Very Good,33
777,First Eat,Gurgaon,DLF Phase 3,77.094173,28.4904461,"Healthy Food, North Indian, Continental",300.0,No,No,No,1,4.0,Green,Very Good,162
778,Zoe,Gurgaon,DLF Phase 3,77.08978873,28.49488428,"Juices, Beverages, Healthy Food",700.0,No,Yes,No,2,4.3,Green,Very Good,217
779,Dabba Meat,Gurgaon,DLF Phase 4,77.087429,28.4681035,North Indian,550.0,No,Yes,Yes,2,3.1,Orange,Average,195
780,Kashmiri Kitchen,Gurgaon,DLF Phase 4,77.0715115,28.4739245,Kashmiri,1000.0,Yes,Yes,No,3,3.4,Orange,Average,210
781,Rumi's Kitchen,Gurgaon,DLF Phase 4,77.0858383,28.4700182,"Biryani, Lucknowi, North Indian",500.0,No,Yes,No,2,3.4,Orange,Average,165
782,Baking Bad,Gurgaon,DLF Phase 4,77.0813069,28.4666333,"Italian, Pizza",1000.0,No,Yes,No,3,3.7,Yellow,Good,98
783,Bamboo Boat,Gurgaon,DLF Phase 4,77.0888382,28.4614757,"Japanese, Tibetan, Vietnamese, Korean",700.0,No,Yes,No,2,3.8,Yellow,Good,115
784,Big Jack's,Gurgaon,DLF Phase 4,77.08591864,28.46970311,"Continental, Burger, American",800.0,No,Yes,No,2,3.5,Yellow,Good,129
785,Kebab Gali,Gurgaon,DLF Phase 4,77.0872491,28.4626173,"North Indian, Mughlai, Biryani",600.0,No,Yes,No,2,3.9,Yellow,Good,164
786,Lucknow Mail,Gurgaon,DLF Phase 4,77.0857654,28.4700505,"Awadhi, North Indian, Mughlai",800.0,No,Yes,No,2,3.8,Yellow,Good,86
787,Monster's Cafe,Gurgaon,DLF Phase 4,77.08598737,28.46978122,"Continental, North Indian, Chinese",1200.0,No,Yes,Yes,3,3.5,Yellow,Good,269
788,Monty's Chicken Wings,Gurgaon,DLF Phase 4,77.0881933,28.461408,Fast Food,600.0,No,Yes,No,2,3.9,Yellow,Good,124
789,My Country Platter,Gurgaon,DLF Phase 4,77.0887329,28.4614598,"Asian, Chinese, North Indian",600.0,No,Yes,No,2,3.8,Yellow,Good,61
790,SARA World Cuisine,Gurgaon,DLF Phase 4,77.0880584,28.4616192,"Italian, Fast Food",500.0,No,Yes,No,2,3.9,Yellow,Good,90
791,Wah! Amritsar,Gurgaon,DLF Phase 4,77.0879685,28.4617002,"North Indian, Mughlai",750.0,No,Yes,No,2,3.6,Yellow,Good,213
792,World In A Box,Gurgaon,DLF Phase 4,77.0966008,28.4834181,"Healthy Food, European, Continental, Salad",750.0,No,Yes,No,2,3.6,Yellow,Good,461
793,Bun Intended,Gurgaon,DLF Phase 4,77.08301514,28.46624793,"Burger, American, Fast Food",850.0,No,Yes,No,2,4.2,Green,Very Good,93
794,Cafe Gatherings,Gurgaon,DLF Phase 4,77.0875226,28.4622589,"Cafe, Continental",750.0,No,Yes,No,2,4.4,Green,Very Good,161
795,Cafe Soul Garden,Gurgaon,DLF Phase 4,77.0888677,28.4616072,"Cafe, Continental, Italian, Pizza",1300.0,Yes,Yes,No,3,4.1,Green,Very Good,255
796,Food O Gram,Gurgaon,DLF Phase 4,77.0859584,28.4699579,"North Indian, Mughlai",600.0,No,Yes,No,2,4.0,Green,Very Good,88
797,Happy Hakka,Gurgaon,DLF Phase 4,77.0880135,28.46157,"Chinese, Asian, Thai",650.0,No,Yes,No,2,4.1,Green,Very Good,134
798,Kaiser,Gurgaon,DLF Phase 4,77.088706,28.46147,"North Indian, Mughlai",650.0,No,Yes,No,2,4.1,Green,Very Good,152
799,Pizza Central,Gurgaon,DLF Phase 4,77.087295,28.4623501,"Fast Food, Italian, Pizza",600.0,No,Yes,No,2,4.1,Green,Very Good,151
800,Tasty Fare,Gurgaon,DLF Phase 5,77.0957635,28.4486392,"American, Fast Food",600.0,No,Yes,No,2,3.4,Orange,Average,42
801,Burger Point,Gurgaon,DLF Phase 5,77.0978116,28.4495295,"Burger, Fast Food",300.0,No,Yes,No,1,3.6,Yellow,Good,39
802,Drifters Cafe,Gurgaon,DLF Phase 5,77.0951664,28.4477214,"Chinese, Thai, Asian",400.0,No,Yes,No,1,3.9,Yellow,Good,40
803,Oh! Fudge,Gurgaon,DLF Phase 5,77.0957435,28.4486422,"Bakery, Desserts",300.0,No,Yes,No,1,3.8,Yellow,Good,93
804,Anjlika,Gurgaon,"DLF South Point Mall, Golf Course Road",77.0992983,28.447904,"Bakery, Desserts, Fast Food",400.0,No,No,No,1,3.1,Orange,Average,7
805,IZU,Gurgaon,"DLF South Point Mall, Golf Course Road",77.0990285,28.4481471,"Japanese, Sushi",1100.0,Yes,Yes,No,3,3.4,Orange,Average,129
806,Sugar & Spice - Le Marche,Gurgaon,"DLF South Point Mall, Golf Course Road",77.0994781,28.4476522,"Bakery, Fast Food",800.0,No,No,No,2,2.9,Orange,Average,107
807,Bizibean,Gurgaon,"DLF South Point Mall, Golf Course Road",77.0992084,28.4480747,Cafe,550.0,No,No,No,2,3.6,Yellow,Good,59
808,ChandChini,Gurgaon,"DLF South Point Mall, Golf Course Road",77.09939003,28.4478212,"North Indian, Mithai, Chinese, Street Food",800.0,Yes,No,No,2,3.8,Yellow,Good,40
809,Coffee & Chai Co.,Gurgaon,"DLF South Point Mall, Golf Course Road",77.0992156,28.4480264,"Italian, Mexican, Cafe",1100.0,Yes,Yes,No,3,3.6,Yellow,Good,296
810,Greek Food & Beyond,Gurgaon,"DLF South Point Mall, Golf Course Road",77.0990488,28.4479922,"Greek, Mediterranean",1200.0,Yes,No,No,3,3.6,Yellow,Good,27
811,Mediumwelldone,Gurgaon,"DLF South Point Mall, Golf Course Road",77.0994781,28.4476522,"American, European, North Indian",1800.0,Yes,Yes,No,3,3.5,Yellow,Good,259
812,Sonya Bakery Cafe,Gurgaon,"DLF South Point Mall, Golf Course Road",77.0991634,28.4482945,"Bakery, Desserts, Beverages",350.0,No,No,No,1,3.5,Yellow,Good,34
813,Soul & Spice Co.,Gurgaon,"DLF South Point Mall, Golf Course Road",77.0991184,28.448066,"North Indian, Street Food, Beverages",1000.0,Yes,Yes,No,3,3.8,Yellow,Good,120
814,7 Degrees Brauhaus,Gurgaon,"DLF South Point Mall, Golf Course Road",77.0992983,28.448173,"Continental, North Indian, European, Finger Food",3200.0,Yes,No,No,4,4.2,Green,Very Good,1193
815,Cafe Amaretto,Gurgaon,"DLF South Point Mall, Golf Course Road",77.0991184,28.4481557,"Cafe, Italian, European, Bakery",1400.0,Yes,Yes,No,3,4.1,Green,Very Good,147
816,Sibang Bakery,Gurgaon,"DLF South Point Mall, Golf Course Road",77.0993432,28.4472358,"Bakery, Desserts, Beverages",500.0,No,Yes,No,2,4.1,Green,Very Good,227
817,The Hangout by 1861,Gurgaon,"DLF South Point Mall, Golf Course Road",77.0993882,28.4477333,"Continental, American, Italian",1600.0,Yes,Yes,No,3,4.0,Green,Very Good,192
818,The Mad Teapot/The Wishing Chair,Gurgaon,"DLF South Point Mall, Golf Course Road",77.0994781,28.4476522,"Cafe, Italian, Bakery",1000.0,Yes,No,No,3,4.4,Green,Very Good,83
819,Ninkasi Imperial Brews & Cookery,Gurgaon,"DLF Star Mall, Sector 30",77.0526236,28.4616176,"North Indian, Asian, European",3000.0,Yes,No,No,4,4.2,Green,Very Good,77
820,Zaffran,Gurgaon,"DLF Star Mall, Sector 30",77.0525451,28.4616552,"North Indian, Mughlai",1600.0,No,Yes,No,3,4.1,Green,Very Good,229
